[
  {
    "Store ID": "-",
    "Store Name": "LIPPO PLAZA KUPANG",
    "Partner": "-",
    "Region": "EAST JAVA - BALI",
    "Address": "Jl. Veteran, Fatululi, Kec. Oebobo, Kota Kupang, Nusa Tenggara Tim.",
    "Province": "NUSA TENGGARA TIMUR",
    "City": "KOTA KUPANG",
    "Type": "Shopping Mall",
    "Status": "No Store",
    "Grade": "B",
    "Store Size": "-",
    "Rental Cost": "-",
    "Latitude": -9.438964,
    "Longitude": 119.254809
  },
  {
    "Store ID": "-",
    "Store Name": "PLAZA ACEH",
    "Partner": "-",
    "Region": "SUMATERA",
    "Address": "Jalan T. Hasan Dek, Beurawe, Kecamatan Kuta Alam, Kota Banda Aceh, Aceh 23124",
    "Province": "ACEH",
    "City": "KOTA BANDA ACEH",
    "Type": "Shopping Mall",
    "Status": "No Store",
    "Grade": "B",
    "Store Size": "-",
    "Rental Cost": "-",
    "Latitude": -8.7843926,
    "Longitude": 115.1720833
  },
  {
    "Store ID": "-",
    "Store Name": "SIDEWALK JIMBARAN",
    "Partner": "-",
    "Region": "EAST JAVA - BALI",
    "Address": "Jl. Raya Uluwatu No.138A, Ungasan, Kec. Kuta Sel., Kabupaten Badung, Bali 80361",
    "Province": "BALI",
    "City": "KABUPATEN BADUNG",
    "Type": "Shopping Mall",
    "Status": "No Store",
    "Grade": "C",
    "Store Size": "-",
    "Rental Cost": "-",
    "Latitude": -8.634447,
    "Longitude": 115.139672
  },
  {
    "Store ID": "-",
    "Store Name": "SENTRAL BELANJA MERAUKE",
    "Partner": "-",
    "Region": "EAST JAVA - BALI",
    "Address": "FCX5+PRF, Klp. Lima, Kec. Merauke, Kabupaten Merauke, Papua Selatan 99615",
    "Province": "PAPUA",
    "City": "KABUPATEN MERAUKE",
    "Type": "Shopping Mall",
    "Status": "No Store",
    "Grade": "D",
    "Store Size": "-",
    "Rental Cost": "-",
    "Latitude": -8.501059,
    "Longitude": 140.394549
  },
  {
    "Store ID": "-",
    "Store Name": "DISCOVERY MALL BALI",
    "Partner": "-",
    "Region": "EAST JAVA - BALI",
    "Address": "Jl. Kartika Plaza, Kuta, Kec. Kuta, Kabupaten Badung, Bali 80361",
    "Province": "BALI",
    "City": "KABUPATEN BADUNG",
    "Type": "Shopping Mall",
    "Status": "No Store",
    "Grade": "C",
    "Store Size": "-",
    "Rental Cost": "-",
    "Latitude": -8.282163,
    "Longitude": 115.238422
  },
  {
    "Store ID": "-",
    "Store Name": "BEACH WALK MALL",
    "Partner": "-",
    "Region": "EAST JAVA - BALI",
    "Address": "Jl. Pantai Kuta, Kuta, Kec. Kuta, Kabupaten Badung, Bali 80361",
    "Province": "BALI",
    "City": "KABUPATEN BADUNG",
    "Type": "Shopping Mall",
    "Status": "No Store",
    "Grade": "A",
    "Store Size": "-",
    "Rental Cost": "-",
    "Latitude": -8.282163,
    "Longitude": 115.238422
  },
  {
    "Store ID": "-",
    "Store Name": "GAJAH MADA PLAZA MALANG",
    "Partner": "-",
    "Region": "EAST JAVA - BALI",
    "Address": "Jl. Agus Salim No.18, Sukoharjo, Klojen, Malang City, East Java 65119",
    "Province": "JAWA TIMUR",
    "City": "KOTA MALANG",
    "Type": "Shopping Mall",
    "Status": "No Store",
    "Grade": "D",
    "Store Size": "-",
    "Rental Cost": "-",
    "Latitude": -7.9840054,
    "Longitude": 112.6326371
  },
  {
    "Store ID": "-",
    "Store Name": "MALANG TOWN SQUARE",
    "Partner": "-",
    "Region": "EAST JAVA - BALI",
    "Address": "Jl. Veteran No.2, Penanggungan, Kec. Klojen, Kota Malang, Jawa Timur 65111",
    "Province": "JAWA TIMUR",
    "City": "KOTA MALANG",
    "Type": "Shopping Mall",
    "Status": "No Store",
    "Grade": "C",
    "Store Size": "-",
    "Rental Cost": "-",
    "Latitude": -7.969453,
    "Longitude": 112.634158
  },
  {
    "Store ID": "-",
    "Store Name": "PLAZA ARAYA MALANG",
    "Partner": "-",
    "Region": "EAST JAVA - BALI",
    "Address": "Jl. Blimbing Indah Megah No.2, Purwodadi, Kec. Blimbing, Kota Malang, Jawa Timur 65126",
    "Province": "JAWA TIMUR",
    "City": "KOTA MALANG",
    "Type": "Shopping Mall",
    "Status": "No Store",
    "Grade": "C",
    "Store Size": "-",
    "Rental Cost": "-",
    "Latitude": -7.9295131,
    "Longitude": 112.6507252
  },
  {
    "Store ID": "-",
    "Store Name": "PLAZA MADIUN",
    "Partner": "-",
    "Region": "EAST JAVA - BALI",
    "Address": "Jl. Pahlawan No.38-40, Pangongangan, Kec. Manguharjo, Kota Madiun, Jawa Timur 63121",
    "Province": "JAWA TIMUR",
    "City": "KOTA MADIUN",
    "Type": "Shopping Mall",
    "Status": "No Store",
    "Grade": "B",
    "Store Size": "-",
    "Rental Cost": "-",
    "Latitude": -7.8149184,
    "Longitude": 112.0249638
  },
  {
    "Store ID": "-",
    "Store Name": "RAMAI MALL",
    "Partner": "-",
    "Region": "CENTRAL - WEST JAVA",
    "Address": "Jl. Beskalan No.73, Ngupasan, Kec. Gondomanan, Kota Yogyakarta, Daerah Istimewa Yogyakarta 55122",
    "Province": "DI YOGYAKARTA",
    "City": "KOTA YOGYAKARTA",
    "Type": "Shopping Mall",
    "Status": "No Store",
    "Grade": "D",
    "Store Size": "-",
    "Rental Cost": "-",
    "Latitude": -7.802383,
    "Longitude": 110.364373
  },
  {
    "Store ID": "-",
    "Store Name": "MALIOBORO MALL",
    "Partner": "-",
    "Region": "CENTRAL - WEST JAVA",
    "Address": "Jl. Malioboro No.52-58, Suryatmajan, Kec. Danurejan, Kota Yogyakarta, DI Yogyakarta 55213",
    "Province": "DI YOGYAKARTA",
    "City": "KOTA YOGYAKARTA",
    "Type": "Shopping Mall",
    "Status": "No Store",
    "Grade": "D",
    "Store Size": "-",
    "Rental Cost": "-",
    "Latitude": -7.7933057,
    "Longitude": 110.36608
  },
  {
    "Store ID": "-",
    "Store Name": "LIPPO PLAZA JOGJA",
    "Partner": "-",
    "Region": "CENTRAL - WEST JAVA",
    "Address": "Jl. Laksda Adisucipto No.32-34, Demangan, Kec. Gondokusuman, Kota Yogyakarta, DI Yogyakarta",
    "Province": "DI YOGYAKARTA",
    "City": "KOTA YOGYAKARTA",
    "Type": "Shopping Mall",
    "Status": "No Store",
    "Grade": "C",
    "Store Size": "-",
    "Rental Cost": "-",
    "Latitude": -7.7830719,
    "Longitude": 110.3880943
  },
  {
    "Store ID": "-",
    "Store Name": "RING ROAD CITY WALK",
    "Partner": "-",
    "Region": "SUMATERA",
    "Address": "Jalan Arteri Ring Road (Jalan Gagak Hitam) No.28, Kelurahan Sunggal, Kecamatan Medan Sunggal, Kota Medan, Sumatera Utara (Kode Pos 20122)",
    "Province": "SUMATERA UTARA",
    "City": "KOTA PEKANBARU",
    "Type": "Shopping Mall",
    "Status": "No Store",
    "Grade": "C",
    "Store Size": "-",
    "Rental Cost": "-",
    "Latitude": -7.750566,
    "Longitude": 110.366238
  },
  {
    "Store ID": "-",
    "Store Name": "Jatinangor Town Square",
    "Partner": "-",
    "Region": "CENTRAL - WEST JAVA",
    "Address": "Jl. Raya Jatinangor No.150, Cikeruh, Kec. Jatinangor, Kab. Sumedang, Jawa Barat",
    "Province": "JAWA BARAT",
    "City": "KABUPATEN SUMEDANG",
    "Type": "Shopping Mall",
    "Status": "No Store",
    "Grade": "C",
    "Store Size": "-",
    "Rental Cost": "-",
    "Latitude": -7.67,
    "Longitude": 110.39472
  },
  {
    "Store ID": "-",
    "Store Name": "PLAZA ASIA SUMEDANG",
    "Partner": "-",
    "Region": "CENTRAL - WEST JAVA",
    "Address": "Jl. Mayor Abdurrahman No.225, Kota Kaler, Kec. Sumedang Utara, Kab. Sumedang, Jawa Barat",
    "Province": "JAWA BARAT",
    "City": "KABUPATEN SUMEDANG",
    "Type": "Shopping Mall",
    "Status": "No Store",
    "Grade": "C",
    "Store Size": "-",
    "Rental Cost": "-",
    "Latitude": -7.67,
    "Longitude": 110.39472
  },
  {
    "Store ID": "-",
    "Store Name": "MALL JAMTOS",
    "Partner": "-",
    "Region": "SUMATERA",
    "Address": "Jalan Kapten A. Bakaruddin No.88, Kelurahan Simpang Tiga Sipin, Kecamatan Kota Baru, Kota Jambi",
    "Province": "JAMBI",
    "City": "KOTA JAMBI",
    "Type": "Shopping Mall",
    "Status": "No Store",
    "Grade": "B",
    "Store Size": "-",
    "Rental Cost": "-",
    "Latitude": -7.656,
    "Longitude": 112.67
  },
  {
    "Store ID": "-",
    "Store Name": "SOLO GRAND MALL",
    "Partner": "-",
    "Region": "CENTRAL - WEST JAVA",
    "Address": "Jl. Brigjen Slamet Riyadi No.273, Penumping, Kec. Laweyan, Kota Surakarta, Jawa Tengah 57141",
    "Province": "JAWA TENGAH",
    "City": "KOTA SURAKARTA",
    "Type": "Shopping Mall",
    "Status": "No Store",
    "Grade": "D",
    "Store Size": "-",
    "Rental Cost": "-",
    "Latitude": -7.5699639,
    "Longitude": 110.7968624
  },
  {
    "Store ID": "-",
    "Store Name": "SENTRA NIAGA SOLO",
    "Partner": "-",
    "Region": "CENTRAL - WEST JAVA",
    "Address": "Jl. Monginsidi No.107, Gilingan, Kec. Banjarsari, Kota Surakarta, Jawa Tengah",
    "Province": "JAWA TENGAH",
    "City": "KABUPATEN SUKOHARJO",
    "Type": "Shopping Mall",
    "Status": "No Store",
    "Grade": "D",
    "Store Size": "-",
    "Rental Cost": "-",
    "Latitude": -7.5422,
    "Longitude": 110.8103874
  },
  {
    "Store ID": "-",
    "Store Name": "SUZUYA RANTAU PRAPAT",
    "Partner": "-",
    "Region": "SUMATERA",
    "Address": "Jl. SM. Raja, Bakaran Batu, Kec. Rantau Sel., Kab. Labuhanbatu, Sumatera Utara 21418",
    "Province": "SUMATERA UTARA",
    "City": "KABUPATEN LABUHANBATU",
    "Type": "Shopping Mall",
    "Status": "No Store",
    "Grade": "D",
    "Store Size": "-",
    "Rental Cost": "-",
    "Latitude": -7.497472,
    "Longitude": 110.212641
  },
  {
    "Store ID": "-",
    "Store Name": "MIKO MALL",
    "Partner": "-",
    "Region": "CENTRAL - WEST JAVA",
    "Address": "Jl. Kopo No.599, Cirangrang, Kec. Babakan Ciparay, Kota Bandung, Jawa Barat",
    "Province": "JAWA BARAT",
    "City": "KOTA BANDUNG",
    "Type": "Shopping Mall",
    "Status": "No Store",
    "Grade": "D",
    "Store Size": "-",
    "Rental Cost": "-",
    "Latitude": -7.3993,
    "Longitude": 108.2607
  },
  {
    "Store ID": "-",
    "Store Name": "METRO INDAH MALL",
    "Partner": "-",
    "Region": "CENTRAL - WEST JAVA",
    "Address": "Jl. Soekarno Hatta No.590, Sekejati, Kec. Buah Batu, Kota Bandung, Jawa Barat",
    "Province": "JAWA BARAT",
    "City": "KOTA BANDUNG",
    "Type": "Shopping Mall",
    "Status": "No Store",
    "Grade": "D",
    "Store Size": "-",
    "Rental Cost": "-",
    "Latitude": -7.3993,
    "Longitude": 108.2607
  },
  {
    "Store ID": "-",
    "Store Name": "JAMBI PRIMA MALL",
    "Partner": "-",
    "Region": "SUMATERA",
    "Address": "Jl. Jend. Sudirman No.90, Talang Jauh, Kec. Jelutung, Kota Jambi, Jambi 36133",
    "Province": "JAMBI",
    "City": "KOTA PANGKAL PINANG",
    "Type": "Shopping Mall",
    "Status": "No Store",
    "Grade": "D",
    "Store Size": "-",
    "Rental Cost": "-",
    "Latitude": -7.3263412,
    "Longitude": 108.3422722
  },
  {
    "Store ID": "-",
    "Store Name": "PLAZA ANUGRAH SIDIMPUAN",
    "Partner": "-",
    "Region": "SUMATERA",
    "Address": "Jl. Jenderal Sudirman No. 1, Minggu II, Kecamatan Padangsidimpuan Utara, Kota Padang Sidempuan, Sumatera Utara 22711",
    "Province": "SUMATERA UTARA",
    "City": "KOTA MEDAN",
    "Type": "Shopping Mall",
    "Status": "No Store",
    "Grade": "D",
    "Store Size": "-",
    "Rental Cost": "-",
    "Latitude": -7.3211691,
    "Longitude": 108.3215921
  },
  {
    "Store ID": "-",
    "Store Name": "MASPION SQUARE",
    "Partner": "-",
    "Region": "EAST JAVA - BALI",
    "Address": "Jl. Ahmad Yani No.73, Margorejo, Kec. Wonocolo, Surabaya, Jawa Timur 60238",
    "Province": "JAWA TIMUR",
    "City": "KOTA SURABAYA",
    "Type": "Shopping Mall",
    "Status": "No Store",
    "Grade": "D",
    "Store Size": "-",
    "Rental Cost": "-",
    "Latitude": -7.32027,
    "Longitude": 112.7325051
  },
  {
    "Store ID": "-",
    "Store Name": "PAKUWON TRADE CENTER",
    "Partner": "-",
    "Region": "EAST JAVA - BALI",
    "Address": "Jl. Pakuwon Indah No.2, Babatan, Kec. Wiyung, Surabaya, Jawa Timur 60213",
    "Province": "JAWA TIMUR",
    "City": "KOTA SURABAYA",
    "Type": "Shopping Mall",
    "Status": "No Store",
    "Grade": "D",
    "Store Size": "-",
    "Rental Cost": "-",
    "Latitude": -7.3110038,
    "Longitude": 112.6894997
  },
  {
    "Store ID": "-",
    "Store Name": "DARMO TRADE CENTER",
    "Partner": "-",
    "Region": "EAST JAVA - BALI",
    "Address": "Jl. Jagir Wonokromo, Jagir, Kec. Wonokromo, Surabaya, Jawa Timur 60242",
    "Province": "JAWA TIMUR",
    "City": "KOTA SURABAYA",
    "Type": "Shopping Mall",
    "Status": "No Store",
    "Grade": "D",
    "Store Size": "-",
    "Rental Cost": "-",
    "Latitude": -7.3020554,
    "Longitude": 112.7392222
  },
  {
    "Store ID": "-",
    "Store Name": "MARVEL CITY MALL",
    "Partner": "-",
    "Region": "EAST JAVA - BALI",
    "Address": "Jl. Ngagel No.123, Ngagel, Kec. Wonokromo, Surabaya, Jawa Timur 60246",
    "Province": "JAWA TIMUR",
    "City": "KOTA SURABAYA",
    "Type": "Shopping Mall",
    "Status": "No Store",
    "Grade": "D",
    "Store Size": "-",
    "Rental Cost": "-",
    "Latitude": -7.3020554,
    "Longitude": 112.7392222
  },
  {
    "Store ID": "-",
    "Store Name": "Lagoon Avenue",
    "Partner": "-",
    "Region": "EAST JAVA - BALI",
    "Address": "Jl. KH Abdul Wahab Siamin Surabaya No.Kav. 9-10, Putat Gede, Kec. Dukuhpakis, Surabaya, Jawa Timur 60225",
    "Province": "JAWA TIMUR",
    "City": "KOTA SURABAYA",
    "Type": "Shopping Mall",
    "Status": "No Store",
    "Grade": "C",
    "Store Size": "-",
    "Rental Cost": "-",
    "Latitude": -7.2934757,
    "Longitude": 112.7174334
  },
  {
    "Store ID": "-",
    "Store Name": "MALL FOOD JUNCTION SURABAYA",
    "Partner": "-",
    "Region": "EAST JAVA - BALI",
    "Address": "Jalan Grand Banjar Mutiara Asri No.1, Banjar Sugihan, Kec. Tandes, Surabaya, Jawa Timur 60184",
    "Province": "JAWA TIMUR",
    "City": "KOTA SURABAYA",
    "Type": "Shopping Mall",
    "Status": "No Store",
    "Grade": "C",
    "Store Size": "-",
    "Rental Cost": "-",
    "Latitude": -7.2564189,
    "Longitude": 112.6716934
  },
  {
    "Store ID": "-",
    "Store Name": "ITC MEGA GROSIR",
    "Partner": "-",
    "Region": "EAST JAVA - BALI",
    "Address": "Jl. Gembong No.20 - 30, Kapasan, Kec. Simokerto, Surabaya, Jawa Timur 60141",
    "Province": "JAWA TIMUR",
    "City": "KOTA SURABAYA",
    "Type": "Shopping Mall",
    "Status": "No Store",
    "Grade": "D",
    "Store Size": "-",
    "Rental Cost": "-",
    "Latitude": -7.241472,
    "Longitude": 112.7476266
  },
  {
    "Store ID": "-",
    "Store Name": "PASAR ATOM",
    "Partner": "-",
    "Region": "EAST JAVA - BALI",
    "Address": "Jl. Bunguran No.45, Bongkaran, Kec. Pabean Cantian, Surabaya, Jawa Timur 60161",
    "Province": "JAWA TIMUR",
    "City": "KOTA SURABAYA",
    "Type": "Shopping Mall",
    "Status": "No Store",
    "Grade": "D",
    "Store Size": "-",
    "Rental Cost": "-",
    "Latitude": -7.2400898,
    "Longitude": 112.7450483
  },
  {
    "Store ID": "-",
    "Store Name": "JEMBATAN MERAH PLASA",
    "Partner": "-",
    "Region": "EAST JAVA - BALI",
    "Address": "Jl. Taman Jayengrono No.2, Krembangan Sel., Kec. Krembangan, Surabaya, Jawa Timur 60175",
    "Province": "JAWA TIMUR",
    "City": "KOTA SURABAYA",
    "Type": "Shopping Mall",
    "Status": "No Store",
    "Grade": "D",
    "Store Size": "-",
    "Rental Cost": "-",
    "Latitude": -7.2342162,
    "Longitude": 112.7348725
  },
  {
    "Store ID": "-",
    "Store Name": "THE PARK SEMARANG",
    "Partner": "-",
    "Region": "CENTRAL - WEST JAVA",
    "Address": "Jl. Madukoro Raya No.1, Tawangsari, Kec. Semarang Barat, Kota Semarang, Jawa Tengah 50144",
    "Province": "JAWA TENGAH",
    "City": "KOTA SEMARANG",
    "Type": "Shopping Mall",
    "Status": "No Store",
    "Grade": "C",
    "Store Size": "-",
    "Rental Cost": "-",
    "Latitude": -7.223499,
    "Longitude": 110.431178
  },
  {
    "Store ID": "-",
    "Store Name": "MALANG PLAZA",
    "Partner": "-",
    "Region": "EAST JAVA - BALI",
    "Address": "Jl. Agus Salim No.26, Sukoharjo, Kec. Klojen, Kota Malang, Jawa Timur 65118",
    "Province": "JAWA TIMUR",
    "City": "KOTA MALANG",
    "Type": "Shopping Mall",
    "Status": "No Store",
    "Grade": "D",
    "Store Size": "-",
    "Rental Cost": "-",
    "Latitude": -7.15513,
    "Longitude": 112.6124
  },
  {
    "Store ID": "-",
    "Store Name": "UPTOWN MALL",
    "Partner": "-",
    "Region": "CENTRAL - WEST JAVA",
    "Address": "Jl. Rm. Hadisoebeno Sosro Wardoyo, Pesantren, Kec. Mijen, Kota Semarang, Jawa Tengah 50212",
    "Province": "JAWA TENGAH",
    "City": "KABUPATEN DEMAK",
    "Type": "Shopping Mall",
    "Status": "No Store",
    "Grade": "D",
    "Store Size": "-",
    "Rental Cost": "-",
    "Latitude": -7.15417,
    "Longitude": 110.41083
  },
  {
    "Store ID": "-",
    "Store Name": "PLAZA SIMPANG LIMA",
    "Partner": "-",
    "Region": "CENTRAL - WEST JAVA",
    "Address": "Jl. Ahmad Yani No.1, Karangkidul, Kec. Semarang Tengah, Kota Semarang, Jawa Tengah",
    "Province": "JAWA TENGAH",
    "City": "KOTA SEMARANG",
    "Type": "Shopping Mall",
    "Status": "No Store",
    "Grade": "B",
    "Store Size": "-",
    "Rental Cost": "-",
    "Latitude": -7.0606774,
    "Longitude": 110.4435859
  },
  {
    "Store ID": "-",
    "Store Name": "THEE MATIC",
    "Partner": "-",
    "Region": "CENTRAL - WEST JAVA",
    "Address": "Jl. Raya Majalaya - Rancaekek, Majasetra, Kec. Majalaya, Kabupaten Bandung, Jawa Barat 40392",
    "Province": "JAWA BARAT",
    "City": "KABUPATEN BANDUNG",
    "Type": "Shopping Mall",
    "Status": "No Store",
    "Grade": "D",
    "Store Size": "-",
    "Rental Cost": "-",
    "Latitude": -7.0478982,
    "Longitude": 107.7592616
  },
  {
    "Store ID": "-",
    "Store Name": "RITA SUPERMALL TEGAL",
    "Partner": "-",
    "Region": "CENTRAL - WEST JAVA",
    "Address": "Jl. Kolonel Sugiono No.155, Pekauman, Kec. Tegal Barat, Kota Tegal, Jawa Tengah",
    "Province": "JAWA TENGAH",
    "City": "KOTA TEGAL",
    "Type": "Shopping Mall",
    "Status": "No Store",
    "Grade": "D",
    "Store Size": "-",
    "Rental Cost": "-",
    "Latitude": -7.030024,
    "Longitude": 109.198608
  },
  {
    "Store ID": "-",
    "Store Name": "ROXY SQUARE",
    "Partner": "-",
    "Region": "CENTRAL - WEST JAVA",
    "Address": "Jl. Brigjen Sudiarto No.760, Pedurungan Lor, Kec. Pedurungan, Kota Semarang, Jawa Tengah",
    "Province": "JAWA TENGAH",
    "City": "KABUPATEN SUKOHARJO",
    "Type": "Shopping Mall",
    "Status": "No Store",
    "Grade": "D",
    "Store Size": "-",
    "Rental Cost": "-",
    "Latitude": -7.02385,
    "Longitude": 110.403742
  },
  {
    "Store ID": "-",
    "Store Name": "MATAHARI PLAZA",
    "Partner": "-",
    "Region": "CENTRAL - WEST JAVA",
    "Address": "Jl. Ahmad Yani No.1, Karangkidul, Kec. Semarang Tengah, Kota Semarang, Jawa Tengah 50136",
    "Province": "JAWA TENGAH",
    "City": "KOTA SEMARANG",
    "Type": "Shopping Mall",
    "Status": "No Store",
    "Grade": "B",
    "Store Size": "-",
    "Rental Cost": "-",
    "Latitude": -7.0131204,
    "Longitude": 110.3895027
  },
  {
    "Store ID": "-",
    "Store Name": "MALL BOEMI KEDATON",
    "Partner": "-",
    "Region": "SUMATERA",
    "Address": "Jalan Teuku Umar - Jalan Sultan Agung No. 1, Labuhan Ratu, Kecamatan Kedaton, Kota Bandar Lampung, Lampung 35132",
    "Province": "LAMPUNG",
    "City": "KOTA BANDAR LAMPUNG",
    "Type": "Shopping Mall",
    "Status": "No Store",
    "Grade": "A",
    "Store Size": "-",
    "Rental Cost": "-",
    "Latitude": -6.9907846,
    "Longitude": 110.4267007
  },
  {
    "Store ID": "-",
    "Store Name": "SAGA SUPERMARKET & DEPT STORE",
    "Partner": "-",
    "Region": "EAST JAVA - BALI",
    "Address": "Jalan A. Yani, Ruko Kuda Laut, Klademak, Kecamatan Sorong Manoi, Kota Sorong, Papua Barat Daya 98414",
    "Province": "PAPUA BARAT",
    "City": "KOTA SORONG",
    "Type": "Shopping Mall",
    "Status": "No Store",
    "Grade": "D",
    "Store Size": "-",
    "Rental Cost": "-",
    "Latitude": -6.9793,
    "Longitude": 112.8549
  },
  {
    "Store ID": "-",
    "Store Name": "PLAZA PARAHYANGAN",
    "Partner": "-",
    "Region": "CENTRAL - WEST JAVA",
    "Address": "Balonggede, Regol, Bandung City, West Java",
    "Province": "JAWA BARAT",
    "City": "KOTA BANDUNG",
    "Type": "Shopping Mall",
    "Status": "No Store",
    "Grade": "C",
    "Store Size": "-",
    "Rental Cost": "-",
    "Latitude": -6.9395914,
    "Longitude": 107.6137269
  },
  {
    "Store ID": "-",
    "Store Name": "YOGYA MALL PEKALONGAN",
    "Partner": "-",
    "Region": "CENTRAL - WEST JAVA",
    "Address": "Jl. KH Wahid Hasyim No.92, Kergon, Kec. Pekalongan Barat, Kota Pekalongan, Jawa Tengah",
    "Province": "JAWA TENGAH",
    "City": "KOTA PEKALONGAN",
    "Type": "Shopping Mall",
    "Status": "No Store",
    "Grade": "D",
    "Store Size": "-",
    "Rental Cost": "-",
    "Latitude": -6.904801,
    "Longitude": 109.67203
  },
  {
    "Store ID": "-",
    "Store Name": "ASIA TOSERBA",
    "Partner": "-",
    "Region": "CENTRAL - WEST JAVA",
    "Address": "Jl. Karanggetas No.25-27, Panjunan, Kec. Lemahwungkuk, Kota Cirebon, Jawa Barat 45112",
    "Province": "JAWA BARAT",
    "City": "KOTA CIREBON",
    "Type": "Shopping Mall",
    "Status": "No Store",
    "Grade": "C",
    "Store Size": "-",
    "Rental Cost": "-",
    "Latitude": -6.714795,
    "Longitude": 108.5629101
  },
  {
    "Store ID": "-",
    "Store Name": "PUSAT GROSIR CIREBON",
    "Partner": "-",
    "Region": "CENTRAL - WEST JAVA",
    "Address": "Jl. Siliwangi No.239, Kebonbaru, Kec. Kejaksan, Kota Cirebon, Jawa Barat",
    "Province": "JAWA BARAT",
    "City": "KOTA CIREBON",
    "Type": "Shopping Mall",
    "Status": "No Store",
    "Grade": "D",
    "Store Size": "-",
    "Rental Cost": "-",
    "Latitude": -6.7084088,
    "Longitude": 108.5591812
  },
  {
    "Store ID": "-",
    "Store Name": "MORO MALL",
    "Partner": "-",
    "Region": "CENTRAL - WEST JAVA",
    "Address": "Jl. Perintis Kemerdekaan No.7, Kongsen, Purwokerto Kulon, Kec. Purwokerto Sel., Kabupaten Banyumas, Jawa Tengah 53141",
    "Province": "DI YOGYAKARTA",
    "City": "KOTA YOGYAKARTA",
    "Type": "Shopping Mall",
    "Status": "No Store",
    "Grade": "B",
    "Store Size": "-",
    "Rental Cost": "-",
    "Latitude": -6.6349951,
    "Longitude": 106.8083191
  },
  {
    "Store ID": "-",
    "Store Name": "HARTONO MALL SOLO",
    "Partner": "-",
    "Region": "CENTRAL - WEST JAVA",
    "Address": "Jl. Ir. Soekarno, Madegondo, Kec. Grogol, Kab. Sukoharjo, Jawa Tengah",
    "Province": "JAWA TENGAH",
    "City": "KOTA SURAKARTA",
    "Type": "Shopping Mall",
    "Status": "No Store",
    "Grade": "C",
    "Store Size": "-",
    "Rental Cost": "-",
    "Latitude": -6.6107,
    "Longitude": 110.6722
  },
  {
    "Store ID": "-",
    "Store Name": "BOGOR TRADE MALL",
    "Partner": "-",
    "Region": "JAKARTA-BANTEN",
    "Address": "Jl. Ir. H. Juanda No.68, RT.01/RW.13, Paledang, Kecamatan Bogor Tengah, Kota Bogor, Jawa Barat 16122",
    "Province": "JAWA BARAT",
    "City": "KOTA BOGOR",
    "Type": "Shopping Mall",
    "Status": "No Store",
    "Grade": "B",
    "Store Size": "-",
    "Rental Cost": "-",
    "Latitude": -6.59556,
    "Longitude": 106.79667
  },
  {
    "Store ID": "-",
    "Store Name": "LIPPO PLAZA BOGOR",
    "Partner": "-",
    "Region": "JAKARTA-BANTEN",
    "Address": "Jl. Malabar 2 No.17A, RT.03/RW.08, Babakan, Kecamatan Bogor Tengah, Kota Bogor, Jawa Barat 16129",
    "Province": "JAWA BARAT",
    "City": "KOTA BOGOR",
    "Type": "Shopping Mall",
    "Status": "No Store",
    "Grade": "D",
    "Store Size": "-",
    "Rental Cost": "-",
    "Latitude": -6.5921622,
    "Longitude": 106.8022709
  },
  {
    "Store ID": "-",
    "Store Name": "MALL STS",
    "Partner": "-",
    "Region": "CENTRAL - WEST JAVA",
    "Address": "terminal square(sts, Sadang lantai 2, Ciwangi, Kec. Bungursari, Kabupaten Purwakarta, Jawa Barat 14118",
    "Province": "JAWA BARAT",
    "City": "KABUPATEN PURWAKARTA",
    "Type": "Shopping Mall",
    "Status": "No Store",
    "Grade": "D",
    "Store Size": "-",
    "Rental Cost": "-",
    "Latitude": -6.589516,
    "Longitude": 107.444568
  },
  {
    "Store ID": "-",
    "Store Name": "LOTTEMART BOGOR",
    "Partner": "-",
    "Region": "JAKARTA-BANTEN",
    "Address": "Kedung Waringin, Jl. Sholeh Iskandar, RT.05/RW.04, Cibadak, Tanah Sareal, Kota Bogor, Jawa Barat 16164",
    "Province": "JAWA BARAT",
    "City": "KOTA BOGOR",
    "Type": "Shopping Mall",
    "Status": "No Store",
    "Grade": "D",
    "Store Size": "-",
    "Rental Cost": "-",
    "Latitude": -6.5467576,
    "Longitude": 106.7762643
  },
  {
    "Store ID": "-",
    "Store Name": "CHADSTONE",
    "Partner": "-",
    "Region": "JAKARTA-BANTEN",
    "Address": "Jl. Raya Cikarang - Cibarusah No.78 Blok A, Pasirsari, Cikarang Selatan, Bekasi Regency, West Java 17530",
    "Province": "JAWA BARAT",
    "City": "KABUPATEN BEKASI",
    "Type": "Shopping Mall",
    "Status": "No Store",
    "Grade": "D",
    "Store Size": "-",
    "Rental Cost": "-",
    "Latitude": -6.4375384,
    "Longitude": 107.0750972
  },
  {
    "Store ID": "-",
    "Store Name": "SOLO SQUARE",
    "Partner": "-",
    "Region": "CENTRAL - WEST JAVA",
    "Address": "Jl. Brigjen Slamet Riyadi No.451-455, Pajang, Kec. Laweyan, Kota Surakarta, Jawa Tengah 57146",
    "Province": "JAWA TENGAH",
    "City": "KOTA SURAKARTA",
    "Type": "Shopping Mall",
    "Status": "No Store",
    "Grade": "D",
    "Store Size": "-",
    "Rental Cost": "-",
    "Latitude": -6.42047,
    "Longitude": 105.88436
  },
  {
    "Store ID": "-",
    "Store Name": "SINGOSAREN PLAZA",
    "Partner": "-",
    "Region": "CENTRAL - WEST JAVA",
    "Address": "Jl. Gatot Subroto No.79, Kemlayan, Kec. Serengan, Kota Surakarta, Jawa Tengah",
    "Province": "JAWA TENGAH",
    "City": "KOTA SURAKARTA",
    "Type": "Shopping Mall",
    "Status": "No Store",
    "Grade": "B",
    "Store Size": "-",
    "Rental Cost": "-",
    "Latitude": -6.42047,
    "Longitude": 105.88436
  },
  {
    "Store ID": "-",
    "Store Name": "MALL CIKAMPEK",
    "Partner": "-",
    "Region": "CENTRAL - WEST JAVA",
    "Address": "Jl. Ahmad Yani No.76, Dawuan Tim., Kec. Cikampek, Karawang, Jawa Barat 41373",
    "Province": "JAWA BARAT",
    "City": "KABUPATEN KARAWANG",
    "Type": "Shopping Mall",
    "Status": "No Store",
    "Grade": "D",
    "Store Size": "-",
    "Rental Cost": "-",
    "Latitude": -6.4071539,
    "Longitude": 107.4566172
  },
  {
    "Store ID": "-",
    "Store Name": "MALL KARAWANG ELECTRONIC CENTRE",
    "Partner": "-",
    "Region": "CENTRAL - WEST JAVA",
    "Address": "Jl Tuparev.16 (Depan Perlintasan Kereta Api Tuparev, Nagasari, Kec. Karawang Bar., Karawang, Jawa Barat 41312",
    "Province": "JAWA BARAT",
    "City": "KABUPATEN KARAWANG",
    "Type": "Shopping Mall",
    "Status": "No Store",
    "Grade": "D",
    "Store Size": "-",
    "Rental Cost": "-",
    "Latitude": -6.3969697,
    "Longitude": 107.443953
  },
  {
    "Store ID": "-",
    "Store Name": "PLAZA CIBUBUR",
    "Partner": "-",
    "Region": "JAKARTA-BANTEN",
    "Address": "Jalan Alternatif Cibubur - Cileungsi (Jalan Transyogi) KM 2-3, Jatikarya, Kecamatan Jatisampurna, Kota Bekasi, Jawa Barat",
    "Province": "JAWA BARAT",
    "City": "KOTA BEKASI",
    "Type": "Shopping Mall",
    "Status": "No Store",
    "Grade": "D",
    "Store Size": "-",
    "Rental Cost": "-",
    "Latitude": -6.3560135,
    "Longitude": 106.9781505
  },
  {
    "Store ID": "-",
    "Store Name": "PAMULANG SQUARE",
    "Partner": "-",
    "Region": "JAKARTA-BANTEN",
    "Address": "l. Siliwangi No.7, Pamulang Barat, Kecamatan Pamulang, Kota Tangerang Selatan, Banten 15417",
    "Province": "BANTEN",
    "City": "KOTA TANGERANG SELATAN",
    "Type": "Shopping Mall",
    "Status": "No Store",
    "Grade": "D",
    "Store Size": "-",
    "Rental Cost": "-",
    "Latitude": -6.337695,
    "Longitude": 106.738321
  },
  {
    "Store ID": "-",
    "Store Name": "ONE BELPARK MALL",
    "Partner": "-",
    "Region": "JAKARTA-BANTEN",
    "Address": "Jl. RS. Fatmawati Raya No. 1, RT.1/RW.1, Pondok Labu, Kecamatan Cilandak, Kota Jakarta Selatan, DKI Jakarta 12450.",
    "Province": "DKI JAKARTA",
    "City": "KOTA JAKARTA SELATAN",
    "Type": "Shopping Mall",
    "Status": "No Store",
    "Grade": "D",
    "Store Size": "-",
    "Rental Cost": "-",
    "Latitude": -6.3318494,
    "Longitude": 106.8392991
  },
  {
    "Store ID": "-",
    "Store Name": "MALL RAMAYANA KARAWANG",
    "Partner": "-",
    "Region": "CENTRAL - WEST JAVA",
    "Address": "Jl. Tuparev No.1, Nagasari, Kec. Karawang Barat, Kab. Karawang, Jawa Barat",
    "Province": "JAWA BARAT",
    "City": "KABUPATEN KARAWANG",
    "Type": "Shopping Mall",
    "Status": "No Store",
    "Grade": "D",
    "Store Size": "-",
    "Rental Cost": "-",
    "Latitude": -6.331362,
    "Longitude": 107.333638
  },
  {
    "Store ID": "-",
    "Store Name": "THE GRAND OUTLET",
    "Partner": "-",
    "Region": "CENTRAL - WEST JAVA",
    "Address": "Jl. Trans Hexa Karawang, Wanasari, Kec. Telukjambe Bar., Karawang, Jawa Barat 41361",
    "Province": "JAWA BARAT",
    "City": "KABUPATEN KARAWANG",
    "Type": "Shopping Mall",
    "Status": "No Store",
    "Grade": "D",
    "Store Size": "-",
    "Rental Cost": "-",
    "Latitude": -6.331362,
    "Longitude": 107.333638
  },
  {
    "Store ID": "-",
    "Store Name": "MALL GALUH MAS",
    "Partner": "-",
    "Region": "CENTRAL - WEST JAVA",
    "Address": "Jl. Galuh Mas Raya, Sukaharja, Telukjambe Timur, Karawang, Jawa Barat 41361",
    "Province": "JAWA BARAT",
    "City": "KABUPATEN KARAWANG",
    "Type": "Shopping Mall",
    "Status": "No Store",
    "Grade": "B",
    "Store Size": "-",
    "Rental Cost": "-",
    "Latitude": -6.3172356,
    "Longitude": 107.2898017
  },
  {
    "Store ID": "-",
    "Store Name": "COURT BINTARO",
    "Partner": "-",
    "Region": "JAKARTA-BANTEN",
    "Address": "BXC-Mall1 South Lobby, Basement 1, Banten, Pondok Aren, South Tangerang City, Banten 15220",
    "Province": "BANTEN",
    "City": "KOTA TANGERANG SELATAN",
    "Type": "Shopping Mall",
    "Status": "No Store",
    "Grade": "D",
    "Store Size": "-",
    "Rental Cost": "-",
    "Latitude": -6.3077873,
    "Longitude": 106.7031657
  },
  {
    "Store ID": "-",
    "Store Name": "PLAZA PANDEGLANG",
    "Partner": "-",
    "Region": "JAKARTA-BANTEN",
    "Address": "Jl. Ahmad Yani, Pandeglang",
    "Province": "BANTEN",
    "City": "KABUPATEN PANDEGLANG",
    "Type": "Shopping Mall",
    "Status": "No Store",
    "Grade": "B",
    "Store Size": "-",
    "Rental Cost": "-",
    "Latitude": -6.3043287,
    "Longitude": 106.107681
  },
  {
    "Store ID": "-",
    "Store Name": "TERAS KOTA MALL",
    "Partner": "-",
    "Region": "JAKARTA-BANTEN",
    "Address": "Jl. Pahlawan Seribu CBD Lot VII B, Lengkong Gudang, Serpong, Tangerang Selatan, Banten",
    "Province": "BANTEN",
    "City": "KOTA TANGERANG SELATAN",
    "Type": "Shopping Mall",
    "Status": "No Store",
    "Grade": "-",
    "Store Size": "-",
    "Rental Cost": "-",
    "Latitude": -6.293407,
    "Longitude": 106.665938
  },
  {
    "Store ID": "-",
    "Store Name": "BLOK M SQUARE",
    "Partner": "-",
    "Region": "JAKARTA-BANTEN",
    "Address": "Blok M Square, Jl. Melawai 5, RT.3/RW.1, Melawai, Kecamatan Kebayoran Baru, Kota Jakarta Selatan, DKI Jakarta 12160, Indonesia.",
    "Province": "DKI JAKARTA",
    "City": "KOTA JAKARTA SELATAN",
    "Type": "Shopping Mall",
    "Status": "No Store",
    "Grade": "D",
    "Store Size": "-",
    "Rental Cost": "-",
    "Latitude": -6.2929148,
    "Longitude": 106.8014406
  },
  {
    "Store ID": "-",
    "Store Name": "Living World Grand Wisata",
    "Partner": "-",
    "Region": "JAKARTA-BANTEN",
    "Address": "Esplanade Ave, Lambangjaya, Tambun Selatan, Bekasi Regency, West Java 17510",
    "Province": "JAWA BARAT",
    "City": "KABUPATEN BEKASI",
    "Type": "Shopping Mall",
    "Status": "No Store",
    "Grade": "A",
    "Store Size": "-",
    "Rental Cost": "-",
    "Latitude": -6.2919315,
    "Longitude": 107.0467188
  },
  {
    "Store ID": "-",
    "Store Name": "CILANDAK TOWN SQUARE",
    "Partner": "-",
    "Region": "JAKARTA-BANTEN",
    "Address": "Jl. TB Simatupang Kav. 17, RT.6/RW.9, Cilandak Barat, Kecamatan Cilandak, Kota Jakarta Selatan, DKI Jakarta 12430.",
    "Province": "DKI JAKARTA",
    "City": "KOTA JAKARTA SELATAN",
    "Type": "Shopping Mall",
    "Status": "No Store",
    "Grade": "C",
    "Store Size": "-",
    "Rental Cost": "-",
    "Latitude": -6.2891063,
    "Longitude": 106.779111
  },
  {
    "Store ID": "-",
    "Store Name": "EASTVARA (NEW)",
    "Partner": "-",
    "Region": "JAKARTA-BANTEN",
    "Address": "Jalan BSD Boulevard Utara, Cijantra, Kecamatan Pagedangan, Kabupaten Tangerang, Banten",
    "Province": "BANTEN",
    "City": "KABUPATEN TANGERANG",
    "Type": "Shopping Mall",
    "Status": "No Store",
    "Grade": "C",
    "Store Size": "-",
    "Rental Cost": "-",
    "Latitude": -6.2890806,
    "Longitude": 106.6483414
  },
  {
    "Store ID": "-",
    "Store Name": "PONDOK INDAH MALL",
    "Partner": "-",
    "Region": "JAKARTA-BANTEN",
    "Address": "Jl. Metro Pondok Indah No. Kav. 4, RT.1/RW.16, Pondok Pinang, Kebayoran Lama, Jakarta Selatan 12310, DKI Jakarta, Indonesia.",
    "Province": "DKI JAKARTA",
    "City": "KOTA JAKARTA SELATAN",
    "Type": "Shopping Mall",
    "Status": "No Store",
    "Grade": "S",
    "Store Size": "-",
    "Rental Cost": "-",
    "Latitude": -6.2837708,
    "Longitude": 106.780438
  },
  {
    "Store ID": "-",
    "Store Name": "TAMINI SQUARE",
    "Partner": "-",
    "Region": "JAKARTA-BANTEN",
    "Address": "Tamini Square, Jl. Taman Mini I No. 1, RT.3/RW.2, Pinang Ranti, Kecamatan Makasar, Jakarta Timur 13560, DKI Jakarta, Indonesia.",
    "Province": "DKI JAKARTA",
    "City": "KOTA JAKARTA TIMUR",
    "Type": "Shopping Mall",
    "Status": "No Store",
    "Grade": "D",
    "Store Size": "-",
    "Rental Cost": "-",
    "Latitude": -6.282274,
    "Longitude": 106.878243
  },
  {
    "Store ID": "-",
    "Store Name": "PEJATEN VILLAGE",
    "Partner": "-",
    "Region": "JAKARTA-BANTEN",
    "Address": "Jl. Warung Jati Barat No. 39, RT.1/RW.5, Jati Padang, Kecamatan Pasar Minggu, Kota Jakarta Selatan, DKI Jakarta 12540.",
    "Province": "DKI JAKARTA",
    "City": "KOTA JAKARTA SELATAN",
    "Type": "Shopping Mall",
    "Status": "No Store",
    "Grade": "C",
    "Store Size": "-",
    "Rental Cost": "-",
    "Latitude": -6.2798221,
    "Longitude": 106.8294158
  },
  {
    "Store ID": "-",
    "Store Name": "TRANSPARK BINTARO",
    "Partner": "-",
    "Region": "JAKARTA-BANTEN",
    "Address": "Jl. Boulevard Bintaro Jaya, Kelurahan Pondok Jaya, Kecamatan Pondok Aren, Kota Tangerang Selatan, Banten 15220",
    "Province": "BANTEN",
    "City": "KOTA TANGERANG SELATAN",
    "Type": "Shopping Mall",
    "Status": "No Store",
    "Grade": "-",
    "Store Size": "-",
    "Rental Cost": "-",
    "Latitude": -6.2796338,
    "Longitude": 106.7240236
  },
  {
    "Store ID": "-",
    "Store Name": "LOTTEMART BINTARO",
    "Partner": "-",
    "Region": "JAKARTA-BANTEN",
    "Address": "Jl. M.H. Thamrin, CBD Area Kavling Blok B7/01-06, Bintaro Jaya Sektor 7, Kelurahan Pondok Jaya, Kecamatan Pondok Aren, Kota Tangerang Selatan, Banten 15224",
    "Province": "BANTEN",
    "City": "KOTA TANGERANG SELATAN",
    "Type": "Shopping Mall",
    "Status": "No Store",
    "Grade": "C",
    "Store Size": "-",
    "Rental Cost": "-",
    "Latitude": -6.2782428,
    "Longitude": 106.7511946
  },
  {
    "Store ID": "-",
    "Store Name": "PLAZA KALIBATA",
    "Partner": "-",
    "Region": "JAKARTA-BANTEN",
    "Address": "Jl. Raya Kalibata No. 141, RT.3/RW.2, Rawajati, Kecamatan Pancoran, Kota Jakarta Selatan, DKI Jakarta 12750, Indonesia.",
    "Province": "DKI JAKARTA",
    "City": "KOTA JAKARTA SELATAN",
    "Type": "Shopping Mall",
    "Status": "No Store",
    "Grade": "D",
    "Store Size": "-",
    "Rental Cost": "-",
    "Latitude": -6.2778233,
    "Longitude": 106.8310636
  },
  {
    "Store ID": "-",
    "Store Name": "TRANSMART CILANDAK",
    "Partner": "-",
    "Region": "JAKARTA-BANTEN",
    "Address": "Jl. Raya Cilandak KKO No.27, RT.1/RW.5, Cilandak Tim., Ps. Minggu, Kota Jakarta Selatan, Daerah Khusus Ibukota Jakarta 12560",
    "Province": "DKI JAKARTA",
    "City": "KOTA JAKARTA SELATAN",
    "Type": "Shopping Mall",
    "Status": "No Store",
    "Grade": "D",
    "Store Size": "-",
    "Rental Cost": "-",
    "Latitude": -6.272687,
    "Longitude": 106.805572
  },
  {
    "Store ID": "-",
    "Store Name": "ITC FATMAWATI",
    "Partner": "-",
    "Region": "JAKARTA-BANTEN",
    "Address": "Jl. ITC Fatmawati No. 39, RT.1/RW.5, Cipete Utara, Kecamatan Kebayoran Baru, Kota Jakarta Selatan, DKI Jakarta 12150",
    "Province": "DKI JAKARTA",
    "City": "KOTA JAKARTA SELATAN",
    "Type": "Shopping Mall",
    "Status": "No Store",
    "Grade": "B",
    "Store Size": "-",
    "Rental Cost": "-",
    "Latitude": -6.2642446,
    "Longitude": 106.7987329
  },
  {
    "Store ID": "-",
    "Store Name": "PUSAT GROSIR CILILITAN",
    "Partner": "-",
    "Region": "JAKARTA-BANTEN",
    "Address": "Jl. Mayjen Sutoyo No. 76, Cililitan, Kecamatan Kramat Jati, Kota Jakarta Timur, DKI Jakarta 13640, Indonesia.",
    "Province": "DKI JAKARTA",
    "City": "KOTA JAKARTA TIMUR",
    "Type": "Shopping Mall",
    "Status": "No Store",
    "Grade": "A",
    "Store Size": "-",
    "Rental Cost": "-",
    "Latitude": -6.2623759,
    "Longitude": 106.864919
  },
  {
    "Store ID": "-",
    "Store Name": "BLUE MALL",
    "Partner": "-",
    "Region": "JAKARTA-BANTEN",
    "Address": "Jalan Chairil Anwar No. 27-36, RT.004/RW.009\nKelurahan Margahayu, Kecamatan Bekasi Timur\nKota Bekasi, Jawa Barat 17113",
    "Province": "JAWA BARAT",
    "City": "KOTA BEKASI",
    "Type": "Shopping Mall",
    "Status": "No Store",
    "Grade": "D",
    "Store Size": "-",
    "Rental Cost": "-",
    "Latitude": -6.256115,
    "Longitude": 107.007979
  },
  {
    "Store ID": "-",
    "Store Name": "POINT SQUARE LEBAK BULUS",
    "Partner": "-",
    "Region": "JAKARTA-BANTEN",
    "Address": "Jl. R.A. Kartini No. 1, RT.9/RW.7, Lebak Bulus, Kecamatan Cilandak, Kota Jakarta Selatan, DKI Jakarta 12440.",
    "Province": "DKI JAKARTA",
    "City": "KOTA JAKARTA SELATAN",
    "Type": "Shopping Mall",
    "Status": "No Store",
    "Grade": "D",
    "Store Size": "-",
    "Rental Cost": "-",
    "Latitude": -6.2509224,
    "Longitude": 106.8692576
  },
  {
    "Store ID": "-",
    "Store Name": "ERAFONE DIGITAL CENTER",
    "Partner": "-",
    "Region": "JAKARTA-BANTEN",
    "Address": "Jalan HR. Rasuna Said Kavling BB-15, Salembaran, Kec. Kosambi, Kabupaten Tangerang, Banten",
    "Province": "BANTEN",
    "City": "KABUPATEN TANGERANG",
    "Type": "Shopping Mall",
    "Status": "No Store",
    "Grade": "C",
    "Store Size": "-",
    "Rental Cost": "-",
    "Latitude": -6.25,
    "Longitude": 106.58333
  },
  {
    "Store ID": "-",
    "Store Name": "GRAND DADAP CITY",
    "Partner": "-",
    "Region": "JAKARTA-BANTEN",
    "Address": "Jl. Villa Taman Bandara, Dadap, Kec. Kosambi, Kabupaten Tangerang, Banten",
    "Province": "BANTEN",
    "City": "KABUPATEN TANGERANG",
    "Type": "Shopping Mall",
    "Status": "No Store",
    "Grade": "A",
    "Store Size": "-",
    "Rental Cost": "-",
    "Latitude": -6.25,
    "Longitude": 106.58333
  },
  {
    "Store ID": "-",
    "Store Name": "BEKASI CYBERPARK",
    "Partner": "-",
    "Region": "JAKARTA-BANTEN",
    "Address": "Jl. KH. Noer Ali No.177, RT.001/RW.005, Kayuringin Jaya, Kec. Bekasi Sel., Kota Bks, Jawa Barat 17144",
    "Province": "JAWA BARAT",
    "City": "KOTA BEKASI",
    "Type": "Shopping Mall",
    "Status": "No Store",
    "Grade": "B",
    "Store Size": "-",
    "Rental Cost": "-",
    "Latitude": -6.2492185,
    "Longitude": 106.9844682
  },
  {
    "Store ID": "-",
    "Store Name": "UBERTOS MALL",
    "Partner": "-",
    "Region": "CENTRAL - WEST JAVA",
    "Address": "Ubertos Mall Lt.2, Pakemitana, Jl. AH. Nasution Lantai 2, Pakemitan, Kec. Cinambo, Kota Bandung, Jawa Barat 45474",
    "Province": "JAWA BARAT",
    "City": "KOTA BANDUNG",
    "Type": "Shopping Mall",
    "Status": "No Store",
    "Grade": "D",
    "Store Size": "-",
    "Rental Cost": "-",
    "Latitude": -6.248686,
    "Longitude": 106.990959
  },
  {
    "Store ID": "-",
    "Store Name": "MALL CIPINANG INDAH",
    "Partner": "-",
    "Region": "JAKARTA-BANTEN",
    "Address": "Jl. Laksamana Malahayati No. 18 (Kalimalang), RT.18/RW.3, Pondok Bambu, Kec. Duren Sawit, Kota Jakarta Timur, DKI Jakarta 13430, Indonesia",
    "Province": "DKI JAKARTA",
    "City": "KOTA JAKARTA TIMUR",
    "Type": "Shopping Mall",
    "Status": "No Store",
    "Grade": "B",
    "Store Size": "-",
    "Rental Cost": "-",
    "Latitude": -6.2474131,
    "Longitude": 106.9108174
  },
  {
    "Store ID": "-",
    "Store Name": "ITC CIPULIR",
    "Partner": "-",
    "Region": "JAKARTA-BANTEN",
    "Address": "Jl. Ciledug Raya No. 1, Cipulir, Kec. Kebayoran Lama, Kota Jakarta Selatan, Daerah Khusus Ibukota Jakarta",
    "Province": "DKI JAKARTA",
    "City": "KOTA JAKARTA SELATAN",
    "Type": "Shopping Mall",
    "Status": "No Store",
    "Grade": "D",
    "Store Size": "-",
    "Rental Cost": "-",
    "Latitude": -6.243886,
    "Longitude": 106.7798594
  },
  {
    "Store ID": "-",
    "Store Name": "BLOK M PLAZA",
    "Partner": "-",
    "Region": "JAKARTA-BANTEN",
    "Address": "Jl. Bulungan No. 76, RT.6/RW.6, Kramat Pela, Kecamatan Kebayoran Baru, Kota Jakarta Selatan, DKI Jakarta 12130.",
    "Province": "DKI JAKARTA",
    "City": "KOTA JAKARTA SELATAN",
    "Type": "Shopping Mall",
    "Status": "No Store",
    "Grade": "B",
    "Store Size": "-",
    "Rental Cost": "-",
    "Latitude": -6.2412046,
    "Longitude": 106.7996939
  },
  {
    "Store ID": "-",
    "Store Name": "METROPOLITAN MALL",
    "Partner": "-",
    "Region": "JAKARTA-BANTEN",
    "Address": "Jl. KH. Noer Ali No.2, RT.008/RW.002, Pekayon Jaya, Kec. Bekasi Sel., Kota Bks, Jawa Barat 17141, Indonesia",
    "Province": "JAWA BARAT",
    "City": "KOTA BEKASI",
    "Type": "Shopping Mall",
    "Status": "No Store",
    "Grade": "A",
    "Store Size": "-",
    "Rental Cost": "-",
    "Latitude": -6.24087,
    "Longitude": 106.98876
  },
  {
    "Store ID": "-",
    "Store Name": "ASTHA DISTRICT",
    "Partner": "-",
    "Region": "JAKARTA-BANTEN",
    "Address": "Jl. Senopati No. 83, Senayan, Kecamatan Kebayoran Baru, Kota Jakarta Selatan, DKI Jakarta 12190, Indonesia.",
    "Province": "DKI JAKARTA",
    "City": "KOTA JAKARTA SELATAN",
    "Type": "Shopping Mall",
    "Status": "No Store",
    "Grade": "D",
    "Store Size": "-",
    "Rental Cost": "-",
    "Latitude": -6.230968,
    "Longitude": 106.8086057
  },
  {
    "Store ID": "-",
    "Store Name": "CBD BINTARO",
    "Partner": "-",
    "Region": "JAKARTA-BANTEN",
    "Address": "Jl. Boulevard Bintaro",
    "Province": "DKI JAKARTA",
    "City": "KOTA JAKARTA SELATAN",
    "Type": "Shopping Mall",
    "Status": "No Store",
    "Grade": "D",
    "Store Size": "-",
    "Rental Cost": "-",
    "Latitude": -6.228078,
    "Longitude": 106.6909737
  },
  {
    "Store ID": "-",
    "Store Name": "RATU PLAZA",
    "Partner": "-",
    "Region": "JAKARTA-BANTEN",
    "Address": "Jl. Jenderal Sudirman Blok Kav No.9, RT.1/RW.3, Gelora, Kecamatan Tanah Abang, Kota Jakarta Pusat, Daerah Khusus Ibukota Jakarta 10270",
    "Province": "DKI JAKARTA",
    "City": "KOTA JAKARTA PUSAT",
    "Type": "Shopping Mall",
    "Status": "No Store",
    "Grade": "D",
    "Store Size": "-",
    "Rental Cost": "-",
    "Latitude": -6.2266611,
    "Longitude": 106.8012609
  },
  {
    "Store ID": "-",
    "Store Name": "SUPERMALL CIANJUR",
    "Partner": "-",
    "Region": "CENTRAL - WEST JAVA",
    "Address": "Supermall, Jl. KH Abdullah Bin Nuh No.1, Pamoyanan, Kec. Cianjur, Kabupaten Cianjur, Jawa Barat 43211",
    "Province": "JAWA BARAT",
    "City": "KABUPATEN CIANJUR",
    "Type": "Shopping Mall",
    "Status": "No Store",
    "Grade": "D",
    "Store Size": "-",
    "Rental Cost": "-",
    "Latitude": -6.226428,
    "Longitude": 106.606928
  },
  {
    "Store ID": "-",
    "Store Name": "PLAZA SENAYAN",
    "Partner": "-",
    "Region": "JAKARTA-BANTEN",
    "Address": "Jl. Asia Afrika No.8, RT.1/RW.3, Gelora, Kecamatan Tanah Abang, Kota Jakarta Pusat, Daerah Khusus Ibukota Jakarta 10270",
    "Province": "DKI JAKARTA",
    "City": "KOTA JAKARTA PUSAT",
    "Type": "Shopping Mall",
    "Status": "No Store",
    "Grade": "B",
    "Store Size": "-",
    "Rental Cost": "-",
    "Latitude": -6.225584,
    "Longitude": 106.7995999
  },
  {
    "Store ID": "-",
    "Store Name": "PACIFIC PLACE",
    "Partner": "-",
    "Region": "JAKARTA-BANTEN",
    "Address": "Jl. Jend. Sudirman Kav. 52–53, RT.5/RW.3, Senayan, Kecamatan Kebayoran Baru, Kota Jakarta Selatan, DKI Jakarta 12190",
    "Province": "DKI JAKARTA",
    "City": "KOTA JAKARTA SELATAN",
    "Type": "Shopping Mall",
    "Status": "No Store",
    "Grade": "A",
    "Store Size": "-",
    "Rental Cost": "-",
    "Latitude": -6.224922,
    "Longitude": 106.810351
  },
  {
    "Store ID": "-",
    "Store Name": "KUNINGAN CITY",
    "Partner": "-",
    "Region": "JAKARTA-BANTEN",
    "Address": "Jl. Prof. Dr. Satrio Kav. 18, Karet Kuningan, Kecamatan Setiabudi, Kota Jakarta Selatan, DKI Jakarta 12940. Mall ini berada di kawasan bisnis Kuningan, Jakarta Selatan.",
    "Province": "DKI JAKARTA",
    "City": "KOTA JAKARTA SELATAN",
    "Type": "Shopping Mall",
    "Status": "No Store",
    "Grade": "C",
    "Store Size": "-",
    "Rental Cost": "-",
    "Latitude": -6.224528,
    "Longitude": 106.829501
  },
  {
    "Store ID": "-",
    "Store Name": "SENAYAN CITY",
    "Partner": "-",
    "Region": "JAKARTA-BANTEN",
    "Address": "Jl. Asia Afrika No. 19, RT.1/RW.3, Gelora, Kecamatan Tanah Abang, Kota Jakarta Pusat, DKI Jakarta 10270, Indonesia",
    "Province": "DKI JAKARTA",
    "City": "KOTA JAKARTA PUSAT",
    "Type": "Shopping Mall",
    "Status": "No Store",
    "Grade": "S",
    "Store Size": "-",
    "Rental Cost": "-",
    "Latitude": -6.2234163,
    "Longitude": 106.798213
  },
  {
    "Store ID": "-",
    "Store Name": "PLAZA FESTIVAL",
    "Partner": "-",
    "Region": "JAKARTA-BANTEN",
    "Address": "Jl. H. R. Rasuna Said No.22 Kav. C, RT.2/RW.5, Karet Kuningan, Kecamatan Setiabudi, Kota Jakarta Selatan, DKI Jakarta 12940.",
    "Province": "DKI JAKARTA",
    "City": "KOTA JAKARTA SELATAN",
    "Type": "Shopping Mall",
    "Status": "No Store",
    "Grade": "D",
    "Store Size": "-",
    "Rental Cost": "-",
    "Latitude": -6.2216089,
    "Longitude": 106.8322373
  },
  {
    "Store ID": "-",
    "Store Name": "PLAZA SEMANGGI",
    "Partner": "-",
    "Region": "JAKARTA-BANTEN",
    "Address": "Jalan Jenderal Sudirman No. Kav 50, RT.1/RW.4, Karet Semanggi, Kecamatan Setiabudi, Jakarta Selatan",
    "Province": "DKI JAKARTA",
    "City": "KOTA JAKARTA SELATAN",
    "Type": "Shopping Mall",
    "Status": "No Store",
    "Grade": "D",
    "Store Size": "-",
    "Rental Cost": "-",
    "Latitude": -6.2197989,
    "Longitude": 106.8145922
  },
  {
    "Store ID": "-",
    "Store Name": "EPIWALK (NEW)",
    "Partner": "-",
    "Region": "JAKARTA-BANTEN",
    "Address": "Jl. Epicentrum Boulevard Barat, RT.2/RW.5, Karet Kuningan, Kecamatan Setiabudi, Kota Jakarta Selatan, DKI Jakarta 12940.",
    "Province": "DKI JAKARTA",
    "City": "KOTA JAKARTA SELATAN",
    "Type": "Shopping Mall",
    "Status": "No Store",
    "Grade": "D",
    "Store Size": "-",
    "Rental Cost": "-",
    "Latitude": -6.2177939,
    "Longitude": 106.8355559
  },
  {
    "Store ID": "-",
    "Store Name": "PTC",
    "Partner": "-",
    "Region": "JAKARTA-BANTEN",
    "Address": "Jl. Bekasi Raya Km.21, Jakarta Timur, RW.3, Rw. Terate, Jakarta, Kota Jakarta Timur, Daerah Khusus Ibukota Jakarta 13920, Indonesia",
    "Province": "DKI JAKARTA",
    "City": "KOTA JAKARTA TIMUR",
    "Type": "Shopping Mall",
    "Status": "No Store",
    "Grade": "D",
    "Store Size": "-",
    "Rental Cost": "-",
    "Latitude": -6.217362,
    "Longitude": 106.904841
  },
  {
    "Store ID": "-",
    "Store Name": "PONDOK KELAPA TOWN SQUARE",
    "Partner": "-",
    "Region": "JAKARTA-BANTEN",
    "Address": "Jl. Pd. Kelapa Raya No.16, RT.16/RW.2, Pd. Klp., Kec. Duren Sawit, Kota Jakarta Timur, Daerah Khusus Ibukota Jakarta 13450, Indonesia",
    "Province": "DKI JAKARTA",
    "City": "KOTA JAKARTA TIMUR",
    "Type": "Shopping Mall",
    "Status": "No Store",
    "Grade": "D",
    "Store Size": "-",
    "Rental Cost": "-",
    "Latitude": -6.217362,
    "Longitude": 106.904841
  },
  {
    "Store ID": "-",
    "Store Name": "CIPLAZ KLENDER (RAMAYANA)",
    "Partner": "-",
    "Region": "JAKARTA-BANTEN",
    "Address": "Jalan I Gusti Ngurah Rai No.4, RT.7/RW.6, Klender, Kecamatan Duren Sawit, Kota Jakarta Timur, DKI Jakarta",
    "Province": "DKI JAKARTA",
    "City": "KOTA JAKARTA TIMUR",
    "Type": "Shopping Mall",
    "Status": "No Store",
    "Grade": "D",
    "Store Size": "-",
    "Rental Cost": "-",
    "Latitude": -6.217362,
    "Longitude": 106.904841
  },
  {
    "Store ID": "-",
    "Store Name": "CITY PLAZA JATINEGARA",
    "Partner": "-",
    "Region": "JAKARTA-BANTEN",
    "Address": "Jl. Matraman Raya No. 173–175, RT.7/RW.6, Bali Mester, Kecamatan Jatinegara, Kota Jakarta Timur, DKI Jakarta 13310, Indonesia.",
    "Province": "DKI JAKARTA",
    "City": "KOTA JAKARTA TIMUR",
    "Type": "Shopping Mall",
    "Status": "No Store",
    "Grade": "B",
    "Store Size": "-",
    "Rental Cost": "-",
    "Latitude": -6.217362,
    "Longitude": 106.904841
  },
  {
    "Store ID": "-",
    "Store Name": "CBD CILEDUG",
    "Partner": "-",
    "Region": "JAKARTA-BANTEN",
    "Address": "Jalan HOS Cokroaminoto No. 93, Kelurahan Karang Tengah, Kecamatan Karang Tengah, Kota Tangerang, Banten",
    "Province": "BANTEN",
    "City": "KOTA TANGERANG",
    "Type": "Shopping Mall",
    "Status": "No Store",
    "Grade": "D",
    "Store Size": "-",
    "Rental Cost": "-",
    "Latitude": -6.215733,
    "Longitude": 106.708834
  },
  {
    "Store ID": "-",
    "Store Name": "SETIABUDI ONE",
    "Partner": "-",
    "Region": "JAKARTA-BANTEN",
    "Address": "Jl. H. R. Rasuna Said Kav. 62, RT.18/RW.2, Kuningan, Karet Kuningan, Kecamatan Setiabudi, Kota Jakarta Selatan, DKI Jakarta 12920, Indonesia.",
    "Province": "DKI JAKARTA",
    "City": "KOTA JAKARTA SELATAN",
    "Type": "Shopping Mall",
    "Status": "No Store",
    "Grade": "D",
    "Store Size": "-",
    "Rental Cost": "-",
    "Latitude": -6.2152224,
    "Longitude": 106.8300413
  },
  {
    "Store ID": "-",
    "Store Name": "ITC PERMATA HIJAU",
    "Partner": "-",
    "Region": "JAKARTA-BANTEN",
    "Address": "ITC Permata Hijau, Jl. Arteri Permata Hijau No. 11, Grogol Utara, Kecamatan Kebayoran Lama, Jakarta Selatan 12210, DKI Jakarta, Indonesia.",
    "Province": "DKI JAKARTA",
    "City": "KOTA JAKARTA SELATAN",
    "Type": "Shopping Mall",
    "Status": "No Store",
    "Grade": "D",
    "Store Size": "-",
    "Rental Cost": "-",
    "Latitude": -6.2150741,
    "Longitude": 106.7777897
  },
  {
    "Store ID": "-",
    "Store Name": "MALL MANDAU KOTA DURI",
    "Partner": "-",
    "Region": "SUMATERA",
    "Address": "Jalan Jendral Sudirman Kav. 109, Kelurahan Babussalam, Kecamatan Mandau, Kota Duri, Kabupaten Bengkalis, Provinsi Riau",
    "Province": "RIAU",
    "City": "KOTA BAGAN BATU",
    "Type": "Shopping Mall",
    "Status": "No Store",
    "Grade": "C",
    "Store Size": "-",
    "Rental Cost": "-",
    "Latitude": -6.2103966,
    "Longitude": 106.8217534
  },
  {
    "Store ID": "-",
    "Store Name": "CITY WALK SUDIRMAN",
    "Partner": "-",
    "Region": "JAKARTA-BANTEN",
    "Address": "Jl. K.H. Mas Mansyur No. Kav. 121, RT.10/RW.11, Karet Tengsin, Kecamatan Tanah Abang, Kota Jakarta Pusat, DKI Jakarta 10220",
    "Province": "DKI JAKARTA",
    "City": "KOTA JAKARTA PUSAT",
    "Type": "Shopping Mall",
    "Status": "No Store",
    "Grade": "D",
    "Store Size": "-",
    "Rental Cost": "-",
    "Latitude": -6.2088877,
    "Longitude": 106.8180323
  },
  {
    "Store ID": "-",
    "Store Name": "PLAZA INDONESIA",
    "Partner": "-",
    "Region": "JAKARTA-BANTEN",
    "Address": "Jl. M.H. Thamrin No.28-30, RT.9/RW.5, Gondangdia, Kec. Menteng, Kota Jakarta Pusat, Daerah Khusus Ibukota Jakarta 10350",
    "Province": "DKI JAKARTA",
    "City": "KOTA JAKARTA PUSAT",
    "Type": "Shopping Mall",
    "Status": "No Store",
    "Grade": "A",
    "Store Size": "-",
    "Rental Cost": "-",
    "Latitude": -6.1927788,
    "Longitude": 106.8226175
  },
  {
    "Store ID": "-",
    "Store Name": "SLIPI JAYA PLAZA",
    "Partner": "-",
    "Region": "JAKARTA-BANTEN",
    "Address": "Jl. Letjen S. Parman No.Kav 17-18, RT.14/RW.1, Kemanggisan, Kec. Palmerah, Kota Jakarta Barat, Daerah Khusus Ibukota Jakarta 11480",
    "Province": "DKI JAKARTA",
    "City": "KOTA JAKARTA BARAT",
    "Type": "Shopping Mall",
    "Status": "No Store",
    "Grade": "D",
    "Store Size": "-",
    "Rental Cost": "-",
    "Latitude": -6.1890861,
    "Longitude": 106.7963959
  },
  {
    "Store ID": "-",
    "Store Name": "TRANSMART GRAHA RAYA",
    "Partner": "-",
    "Region": "JAKARTA-BANTEN",
    "Address": "l. Boulevard Graha Raya, Bintaro, Paku Jaya, Kec. Serpong Utara, Kota Tangerang Selatan, Banten",
    "Province": "BANTEN",
    "City": "KOTA TANGERANG SELATAN",
    "Type": "Shopping Mall",
    "Status": "No Store",
    "Grade": "-",
    "Store Size": "-",
    "Rental Cost": "-",
    "Latitude": -6.182584,
    "Longitude": 106.645058
  },
  {
    "Store ID": "-",
    "Store Name": "ITC BSD",
    "Partner": "-",
    "Region": "JAKARTA-BANTEN",
    "Address": "Jl. Pahlawan Seribu No. 12, Lengkong Wetan, Kecamatan Serpong, Kota Tangerang Selatan, Banten",
    "Province": "BANTEN",
    "City": "KOTA TANGERANG SELATAN",
    "Type": "Shopping Mall",
    "Status": "No Store",
    "Grade": "B",
    "Store Size": "-",
    "Rental Cost": "-",
    "Latitude": -6.182584,
    "Longitude": 106.645058
  },
  {
    "Store ID": "-",
    "Store Name": "ITC CEMPAKA MAS",
    "Partner": "-",
    "Region": "JAKARTA-BANTEN",
    "Address": "Jl. Letjen Suprapto No.1, RW.8, Sumur Batu, Kec. Kemayoran, Kota Jakarta Pusat, Daerah Khusus Ibukota Jakarta 10640",
    "Province": "DKI JAKARTA",
    "City": "KOTA JAKARTA PUSAT",
    "Type": "Shopping Mall",
    "Status": "No Store",
    "Grade": "S",
    "Store Size": "-",
    "Rental Cost": "-",
    "Latitude": -6.182091,
    "Longitude": 106.838787
  },
  {
    "Store ID": "-",
    "Store Name": "GREEN SEDAYU",
    "Partner": "-",
    "Region": "JAKARTA-BANTEN",
    "Address": "Blk. B17, Jl. Taman Palem Lestari No.2, RT.7/RW.13, Cengkareng Bar., Kecamatan Cengkareng, Kota Jakarta Barat, Daerah Khusus Ibukota Jakarta 11730",
    "Province": "DKI JAKARTA",
    "City": "KOTA JAKARTA BARAT",
    "Type": "Shopping Mall",
    "Status": "No Store",
    "Grade": "D",
    "Store Size": "-",
    "Rental Cost": "-",
    "Latitude": -6.172721,
    "Longitude": 106.753204
  },
  {
    "Store ID": "-",
    "Store Name": "NEO SOHO",
    "Partner": "-",
    "Region": "JAKARTA-BANTEN",
    "Address": "Jl. Letjen S. Parman No.28, RT.3/RW.5, Tj. Duren Sel., Kec. Grogol petamburan, Kota Jakarta Barat, Daerah Khusus Ibukota Jakarta 11470",
    "Province": "DKI JAKARTA",
    "City": "KOTA JAKARTA BARAT",
    "Type": "Shopping Mall",
    "Status": "No Store",
    "Grade": "D",
    "Store Size": "-",
    "Rental Cost": "-",
    "Latitude": -6.1722971,
    "Longitude": 106.7759012
  },
  {
    "Store ID": "-",
    "Store Name": "ITC ROXY MAS",
    "Partner": "-",
    "Region": "JAKARTA-BANTEN",
    "Address": "Jl. Kh Hasyim Ashari No.125, RT.6/RW.8, Cideng, Kecamatan Gambir, Kota Jakarta Pusat, Daerah Khusus Ibukota Jakarta 10150",
    "Province": "DKI JAKARTA",
    "City": "KOTA JAKARTA PUSAT",
    "Type": "Shopping Mall",
    "Status": "No Store",
    "Grade": "S",
    "Store Size": "-",
    "Rental Cost": "-",
    "Latitude": -6.170795,
    "Longitude": 106.819005
  },
  {
    "Store ID": "-",
    "Store Name": "MALL ALAM SUTERA",
    "Partner": "-",
    "Region": "JAKARTA-BANTEN",
    "Address": "Jl. Jalur Sutera Bar. No.Kav. 16, RT.002/RW.003, Panunggangan Tim., Kec. Pinang, Kota Tangerang, Banten",
    "Province": "BANTEN",
    "City": "KOTA TANGERANG SELATAN",
    "Type": "Shopping Mall",
    "Status": "No Store",
    "Grade": "D",
    "Store Size": "-",
    "Rental Cost": "-",
    "Latitude": -6.1699636,
    "Longitude": 106.6402965
  },
  {
    "Store ID": "-",
    "Store Name": "CITRA RAYA SQUARE 1",
    "Partner": "-",
    "Region": "JAKARTA-BANTEN",
    "Address": "Jalan Raya Serang\nKelurahan Pasir Gadung, Cikupa\nTangerang",
    "Province": "BANTEN",
    "City": "KABUPATEN TANGERANG",
    "Type": "Shopping Mall",
    "Status": "No Store",
    "Grade": "C",
    "Store Size": "-",
    "Rental Cost": "-",
    "Latitude": -6.16856,
    "Longitude": 106.593571
  },
  {
    "Store ID": "-",
    "Store Name": "MATAHARI MALL KALIDERES",
    "Partner": "-",
    "Region": "JAKARTA-BANTEN",
    "Address": "Jl. Daan Mogot No.24, RT.3/RW.8, Kalideres, Kec. Kalideres, Kota Jakarta Barat, Daerah Khusus Ibukota Jakarta 11840",
    "Province": "DKI JAKARTA",
    "City": "KOTA JAKARTA BARAT",
    "Type": "Shopping Mall",
    "Status": "No Store",
    "Grade": "D",
    "Store Size": "-",
    "Rental Cost": "-",
    "Latitude": -6.1651335,
    "Longitude": 106.7829603
  },
  {
    "Store ID": "-",
    "Store Name": "DAAN MOGOT MALL",
    "Partner": "-",
    "Region": "JAKARTA-BANTEN",
    "Address": "Jl. Daan Mogot No.24, RT.3/RW.8, Kalideres, Kec. Kalideres, Kota Jakarta Barat, Daerah Khusus Ibukota Jakarta 11840",
    "Province": "DKI JAKARTA",
    "City": "KOTA JAKARTA BARAT",
    "Type": "Shopping Mall",
    "Status": "No Store",
    "Grade": "B",
    "Store Size": "-",
    "Rental Cost": "-",
    "Latitude": -6.1651335,
    "Longitude": 106.7829603
  },
  {
    "Store ID": "-",
    "Store Name": "GRAND PARAGON MALL",
    "Partner": "-",
    "Region": "JAKARTA-BANTEN",
    "Address": "12, Jl. Keamanan No.8, RT.13/RW.8, Keagungan, Kec. Taman Sari, Kota Jakarta Barat, Daerah Khusus Ibukota Jakarta 11130",
    "Province": "DKI JAKARTA",
    "City": "KOTA JAKARTA BARAT",
    "Type": "Shopping Mall",
    "Status": "No Store",
    "Grade": "D",
    "Store Size": "-",
    "Rental Cost": "-",
    "Latitude": -6.1512512,
    "Longitude": 106.8145528
  },
  {
    "Store ID": "-",
    "Store Name": "GLODOK PLAZA",
    "Partner": "-",
    "Region": "JAKARTA-BANTEN",
    "Address": "Jl. Pinangsia Raya No.1, RT.1/RW.6, Mangga Besar, Kec. Taman Sari, Kota Jakarta Barat, Daerah Khusus Ibukota Jakarta 11180",
    "Province": "DKI JAKARTA",
    "City": "KOTA JAKARTA BARAT",
    "Type": "Shopping Mall",
    "Status": "No Store",
    "Grade": "D",
    "Store Size": "-",
    "Rental Cost": "-",
    "Latitude": -6.1444791,
    "Longitude": 106.7466272
  },
  {
    "Store ID": "-",
    "Store Name": "MANGGA DUA MALL",
    "Partner": "-",
    "Region": "JAKARTA-BANTEN",
    "Address": "Jl. Mangga Dua Raya No.1, RT.1/RW.12, Mangga Dua Sel., Kecamatan Sawah Besar, Kota Jakarta Pusat, Daerah Khusus Ibukota Jakarta 10730",
    "Province": "DKI JAKARTA",
    "City": "KOTA JAKARTA PUSAT",
    "Type": "Shopping Mall",
    "Status": "No Store",
    "Grade": "D",
    "Store Size": "-",
    "Rental Cost": "-",
    "Latitude": -6.1386098,
    "Longitude": 106.8223536
  },
  {
    "Store ID": "-",
    "Store Name": "HARCO MANGGA DUA",
    "Partner": "-",
    "Region": "JAKARTA-BANTEN",
    "Address": "Jl. Semangat, RT.17/RW.11, Mangga Dua Sel., Kecamatan Sawah Besar, Kota Jakarta Pusat, Daerah Khusus Ibukota Jakarta 10730",
    "Province": "DKI JAKARTA",
    "City": "KOTA JAKARTA PUSAT",
    "Type": "Shopping Mall",
    "Status": "No Store",
    "Grade": "D",
    "Store Size": "-",
    "Rental Cost": "-",
    "Latitude": -6.1386098,
    "Longitude": 106.8223536
  },
  {
    "Store ID": "-",
    "Store Name": "ANCOL BEACH CITY",
    "Partner": "-",
    "Region": "JAKARTA-BANTEN",
    "Address": "Beach City International Stadium, Jl. Kw. Wisata Ancol, Ancol, Pademangan, North Jakarta City, Jakarta 14430",
    "Province": "DKI JAKARTA",
    "City": "KOTA JAKARTA UTARA",
    "Type": "Shopping Mall",
    "Status": "No Store",
    "Grade": "D",
    "Store Size": "-",
    "Rental Cost": "-",
    "Latitude": -6.137991,
    "Longitude": 106.899712
  },
  {
    "Store ID": "-",
    "Store Name": "SUNTER MALL",
    "Partner": "-",
    "Region": "JAKARTA-BANTEN",
    "Address": "Jl. Danau Sunter Utara Kav. II Blok G7, RT.1/RW.13, Sunter Agung, Tanjung Priok, North Jakarta City, Jakarta 14350",
    "Province": "DKI JAKARTA",
    "City": "KOTA JAKARTA UTARA",
    "Type": "Shopping Mall",
    "Status": "No Store",
    "Grade": "C",
    "Store Size": "-",
    "Rental Cost": "-",
    "Latitude": -6.137991,
    "Longitude": 106.899712
  },
  {
    "Store ID": "-",
    "Store Name": "PLAZA LOKASARI",
    "Partner": "-",
    "Region": "JAKARTA-BANTEN",
    "Address": "Jl. Mangga Besar IX No.6, RT.6/RW.2, Tangki, Kec. Taman Sari, Kota Jakarta Barat, Daerah Khusus Ibukota Jakarta 11170",
    "Province": "DKI JAKARTA",
    "City": "KOTA JAKARTA BARAT",
    "Type": "Shopping Mall",
    "Status": "No Store",
    "Grade": "D",
    "Store Size": "-",
    "Rental Cost": "-",
    "Latitude": -6.1351548,
    "Longitude": 106.813289
  },
  {
    "Store ID": "-",
    "Store Name": "LOTTEMART SERANG",
    "Partner": "-",
    "Region": "JAKARTA-BANTEN",
    "Address": "Jl. Mayor Syafei Kpg. Kepandean, Kel. Kagungan, Kec. Serang, Serang (42114)",
    "Province": "BANTEN",
    "City": "KOTA SERANG",
    "Type": "Shopping Mall",
    "Status": "No Store",
    "Grade": "D",
    "Store Size": "-",
    "Rental Cost": "-",
    "Latitude": -6.119683,
    "Longitude": 106.164677
  },
  {
    "Store ID": "-",
    "Store Name": "BAYWALK MALL",
    "Partner": "-",
    "Region": "JAKARTA-BANTEN",
    "Address": "l. Pluit Karang Ayu Barat Utara No.B1, RT.20/RW.2, Pluit, Kecamatan Penjaringan, Jakarta Utara, DKI Jakarta 14450",
    "Province": "DKI JAKARTA",
    "City": "KOTA JAKARTA UTARA",
    "Type": "Shopping Mall",
    "Status": "No Store",
    "Grade": "B",
    "Store Size": "-",
    "Rental Cost": "-",
    "Latitude": -6.1162956,
    "Longitude": 106.7568754
  },
  {
    "Store ID": "-",
    "Store Name": "PIK AVENUE",
    "Partner": "-",
    "Region": "JAKARTA-BANTEN",
    "Address": "Jl. Pantai Indah Kapuk Boulevard, RT.6/RW.2, Kamal Muara, Kecamatan Penjaringan, Jkt Utara, Daerah Khusus Ibukota Jakarta 14470",
    "Province": "DKI JAKARTA",
    "City": "KOTA JAKARTA UTARA",
    "Type": "Shopping Mall",
    "Status": "No Store",
    "Grade": "A",
    "Store Size": "-",
    "Rental Cost": "-",
    "Latitude": -6.11599,
    "Longitude": 106.7604133
  },
  {
    "Store ID": "-",
    "Store Name": "SUPERMALL CILEGON",
    "Partner": "-",
    "Region": "JAKARTA-BANTEN",
    "Address": "Jl Sultan Ageng Tirtayasa Simpang Tiga, Cilegon, Banten 42431",
    "Province": "BANTEN",
    "City": "KOTA CILEGON",
    "Type": "Shopping Mall",
    "Status": "No Store",
    "Grade": "D",
    "Store Size": "-",
    "Rental Cost": "-",
    "Latitude": -6.017389,
    "Longitude": 106.0537688
  },
  {
    "Store ID": "-",
    "Store Name": "RAMAYANA MALL/CILEGON",
    "Partner": "-",
    "Region": "JAKARTA-BANTEN",
    "Address": "Jalan Raya Serang No. 2, Sukmajaya, Kecamatan Jombang, Kota Cilegon, Banten 42416",
    "Province": "BANTEN",
    "City": "KOTA CILEGON",
    "Type": "Shopping Mall",
    "Status": "No Store",
    "Grade": "D",
    "Store Size": "-",
    "Rental Cost": "-",
    "Latitude": -6.017389,
    "Longitude": 106.0537688
  },
  {
    "Store ID": "-",
    "Store Name": "TRANSMART CILEGON",
    "Partner": "-",
    "Region": "JAKARTA-BANTEN",
    "Address": "Jalan KH. Yasin Beji No.2, Kebondalem, Kecamatan Purwakarta, Kota Cilegon, Banten 42433",
    "Province": "BANTEN",
    "City": "KOTA CILEGON",
    "Type": "Shopping Mall",
    "Status": "No Store",
    "Grade": "D",
    "Store Size": "-",
    "Rental Cost": "-",
    "Latitude": -5.9875,
    "Longitude": 106.04861
  },
  {
    "Store ID": "-",
    "Store Name": "SIMPUR CENTRE",
    "Partner": "-",
    "Region": "SUMATERA",
    "Address": "Jalan Raden Intan No.32, Tanjung Karang, Enggal, Kota Bandar Lampung, Lampung 35111",
    "Province": "LAMPUNG",
    "City": "KOTA BANDAR LAMPUNG",
    "Type": "Shopping Mall",
    "Status": "No Store",
    "Grade": "B",
    "Store Size": "-",
    "Rental Cost": "-",
    "Latitude": -5.4219049,
    "Longitude": 105.2582157
  },
  {
    "Store ID": "-",
    "Store Name": "PLAZA LOTUS",
    "Partner": "-",
    "Region": "SUMATERA",
    "Address": "Jl. Raden Intan No.73, Enggal, Enggal, Bandar Lampung 35118",
    "Province": "LAMPUNG",
    "City": "KABUPATEN KARO",
    "Type": "Shopping Mall",
    "Status": "No Store",
    "Grade": "C",
    "Store Size": "-",
    "Rental Cost": "-",
    "Latitude": -5.420098,
    "Longitude": 105.258031
  },
  {
    "Store ID": "-",
    "Store Name": "GRAHA CIJANTUNG",
    "Partner": "-",
    "Region": "JAKARTA-BANTEN",
    "Address": "Graha Cijantung, Jl. Pendidikan I No. 1, Cijantung, Kecamatan Pasar Rebo, Jakarta Timur 13770, DKI Jakarta, Indonesia.",
    "Province": "DKI JAKARTA",
    "City": "KOTA JAKARTA TIMUR",
    "Type": "Shopping Mall",
    "Status": "No Store",
    "Grade": "D",
    "Store Size": "-",
    "Rental Cost": "-",
    "Latitude": -5.1372976,
    "Longitude": 119.5070493
  },
  {
    "Store ID": "-",
    "Store Name": "MALL KAREBOSI LINK",
    "Partner": "-",
    "Region": "KALIMANTAN - SULAWESI",
    "Address": "Jl. Ahmad Yani, Baru, Ujung Pandang, Makassar City, South Sulawesi 90174",
    "Province": "SULAWESI SELATAN",
    "City": "KOTA MAKASSAR",
    "Type": "Shopping Mall",
    "Status": "No Store",
    "Grade": "D",
    "Store Size": "-",
    "Rental Cost": "-",
    "Latitude": -5.132935,
    "Longitude": 119.4095637
  },
  {
    "Store ID": "-",
    "Store Name": "DIANA MALL",
    "Partner": "-",
    "Region": "EAST JAVA - BALI",
    "Address": "Jl. Budi Utomo No.8, Kwamki, Kec. Mimika Baru, Kabupaten Mimika, Papua 99971",
    "Province": "PAPUA",
    "City": "KABUPATEN MIMIKA",
    "Type": "Shopping Mall",
    "Status": "No Store",
    "Grade": "D",
    "Store Size": "-",
    "Rental Cost": "-",
    "Latitude": -4.5633893,
    "Longitude": 136.8397642
  },
  {
    "Store ID": "-",
    "Store Name": "MALL MANDONGA",
    "Partner": "-",
    "Region": "KALIMANTAN - SULAWESI",
    "Address": "JL. Abdullah Silondae, Korumba, Kec. Mandonga, Kota Kendari, Sulawesi Tenggara 93111",
    "Province": "SULAWESI TENGGARA",
    "City": "KOTA KENDARI",
    "Type": "Shopping Mall",
    "Status": "No Store",
    "Grade": "D",
    "Store Size": "-",
    "Rental Cost": "-",
    "Latitude": -3.9767071,
    "Longitude": 122.5135677
  },
  {
    "Store ID": "-",
    "Store Name": "BAJUIN PLAZA",
    "Partner": "-",
    "Region": "KALIMANTAN - SULAWESI",
    "Address": "Jl. Kemakmuran, Pelaihari, Kec. Pelaihari, Kabupaten Tanah Laut, Kalimantan Selatan 70812",
    "Province": "KALIMANTAN SELATAN",
    "City": "KABUPATEN TANAH LAUT",
    "Type": "Shopping Mall",
    "Status": "No Store",
    "Grade": "D",
    "Store Size": "-",
    "Rental Cost": "-",
    "Latitude": -3.7955239,
    "Longitude": 114.7842497
  },
  {
    "Store ID": "-",
    "Store Name": "BENGKULU INDAH MALL ( RENAMED TO BENCOOLEN MALL )",
    "Partner": "-",
    "Region": "SUMATERA",
    "Address": "Jl. Pariwisata No.1, Kelurahan Penurunan, Kecamatan Ratu Samban, Kota Bengkulu, Bengkulu 38223",
    "Province": "BENGKULU",
    "City": "KOTA BENGKULU",
    "Type": "Shopping Mall",
    "Status": "No Store",
    "Grade": "B",
    "Store Size": "-",
    "Rental Cost": "-",
    "Latitude": -3.7922858,
    "Longitude": 102.2623797
  },
  {
    "Store ID": "-",
    "Store Name": "AMBON PLAZA",
    "Partner": "-",
    "Region": "KALIMANTAN - SULAWESI",
    "Address": "Ambon Plaza, Jl. Sam Ratulangi, Kel Honipopu, Sirimau, Kota Ambon, Maluku 97126",
    "Province": "MALUKU",
    "City": "KOTA AMBON",
    "Type": "Shopping Mall",
    "Status": "No Store",
    "Grade": "D",
    "Store Size": "-",
    "Rental Cost": "-",
    "Latitude": -3.71147,
    "Longitude": 128.22068
  },
  {
    "Store ID": "-",
    "Store Name": "AMBON CITY CENTER",
    "Partner": "-",
    "Region": "KALIMANTAN - SULAWESI",
    "Address": "Jl. Wolter Monginsidi, Passo, Kec. Baguala, Kota Ambon, Maluku 97232",
    "Province": "MALUKU",
    "City": "KOTA AMBON",
    "Type": "Shopping Mall",
    "Status": "No Store",
    "Grade": "C",
    "Store Size": "-",
    "Rental Cost": "-",
    "Latitude": -3.65472,
    "Longitude": 128.24611
  },
  {
    "Store ID": "-",
    "Store Name": "CITIMALL PRABUMULIH",
    "Partner": "-",
    "Region": "SUMATERA",
    "Address": "Jalan Lingkar Timur, Kelurahan Gunung Ibul, Kecamatan Prabumulih Timur, Kota Prabumulih, Sumatera Selatan",
    "Province": "SUMATERA SELATAN",
    "City": "KOTA PANGKAL PINANG",
    "Type": "Shopping Mall",
    "Status": "No Store",
    "Grade": "C",
    "Store Size": "-",
    "Rental Cost": "-",
    "Latitude": -3.406348,
    "Longitude": 104.261447
  },
  {
    "Store ID": "-",
    "Store Name": "MASOHI PLAZA",
    "Partner": "-",
    "Region": "KALIMANTAN - SULAWESI",
    "Address": "Jl. Abdullah Solisa, Namaelo, Kota Masohi, Central Maluku Regency, Maluku",
    "Province": "MALUKU",
    "City": "KABUPATEN MALUKU TENGAH",
    "Type": "Shopping Mall",
    "Status": "No Store",
    "Grade": "D",
    "Store Size": "-",
    "Rental Cost": "-",
    "Latitude": -3.303259,
    "Longitude": 128.951334
  },
  {
    "Store ID": "-",
    "Store Name": "PALEMBANG CITY CENTER",
    "Partner": "-",
    "Region": "SUMATERA",
    "Address": "Jalan Radial No.4, 26 Ilir, Kecamatan Bukit Kecil, Kota Palembang, Sumatera Selatan 30127",
    "Province": "SUMATERA SELATAN",
    "City": "KOTA BATAM",
    "Type": "Shopping Mall",
    "Status": "No Store",
    "Grade": "D",
    "Store Size": "-",
    "Rental Cost": "-",
    "Latitude": -2.976938,
    "Longitude": 104.734354
  },
  {
    "Store ID": "-",
    "Store Name": "RAMAYANA MALL/PALEMBANG",
    "Partner": "-",
    "Region": "SUMATERA",
    "Address": "Komplek Ilir Barat Permai, Jalan Letkol Iskandar Nomor 448, Kelurahan 24 Ilir, Kecamatan Bukit Kecil, Kota Palembang, Sumatera Selatan",
    "Province": "SUMATERA SELATAN",
    "City": "KOTA PALEMBANG",
    "Type": "Shopping Mall",
    "Status": "No Store",
    "Grade": "D",
    "Store Size": "-",
    "Rental Cost": "-",
    "Latitude": -2.976938,
    "Longitude": 104.734354
  },
  {
    "Store ID": "-",
    "Store Name": "INTERNASIONAL PLAZA",
    "Partner": "-",
    "Region": "SUMATERA",
    "Address": "Jalan Jenderal Sudirman No. 18 Ilir, Kecamatan Ilir Timur I, Kota Palembang, Sumatera Selatan 30114",
    "Province": "SUMATERA SELATAN",
    "City": "KOTA PALEMBANG",
    "Type": "Shopping Mall",
    "Status": "No Store",
    "Grade": "C",
    "Store Size": "-",
    "Rental Cost": "-",
    "Latitude": -2.9665233,
    "Longitude": 104.7483479
  },
  {
    "Store ID": "-",
    "Store Name": "SAGU INDAH PLAZA",
    "Partner": "-",
    "Region": "EAST JAVA - BALI",
    "Address": "Jl. Ahmad Yani No.50, Gurabesi, Kec. Jayapura Utara, Kota Jayapura, Papua 99221",
    "Province": "PAPUA",
    "City": "KOTA JAYAPURA",
    "Type": "Shopping Mall",
    "Status": "No Store",
    "Grade": "D",
    "Store Size": "-",
    "Rental Cost": "-",
    "Latitude": -2.5387539,
    "Longitude": 140.7037389
  },
  {
    "Store ID": "-",
    "Store Name": "MALL JAYAPURA",
    "Partner": "-",
    "Region": "EAST JAVA - BALI",
    "Address": "Jl. Samratulangi, Bayangkara, Kec. Jayapura Utara, Kota Jayapura, Papua 99112",
    "Province": "PAPUA",
    "City": "KOTA JAYAPURA",
    "Type": "Shopping Mall",
    "Status": "No Store",
    "Grade": "C",
    "Store Size": "-",
    "Rental Cost": "-",
    "Latitude": -2.5387539,
    "Longitude": 140.7037389
  },
  {
    "Store ID": "-",
    "Store Name": "TRANSMART PANGKAL PINANG",
    "Partner": "-",
    "Region": "SUMATERA",
    "Address": "Jl. Jendral Sudirman No.8, Taman Bunga, Kec. Gerunggang, Kota Pangkal Pinang, Kepulauan Bangka Belitung 33684",
    "Province": "KEPULAUAN BANGKA BELITUNG",
    "City": "KABUPATEN BANDAR LAMPUNG",
    "Type": "Shopping Mall",
    "Status": "No Store",
    "Grade": "C",
    "Store Size": "-",
    "Rental Cost": "-",
    "Latitude": -2.416011,
    "Longitude": 115.2446244
  },
  {
    "Store ID": "-",
    "Store Name": "PUNCAK MALL",
    "Partner": "-",
    "Region": "SUMATERA",
    "Address": "Jl. Sriwijaya No.10-F, Gedung Nasional, Kec. Taman Sari, Kota Pangkal Pinang, Kepulauan Bangka Belitung 33684",
    "Province": "KEPULAUAN BANGKA BELITUNG",
    "City": "KOTA PANGKAL PINANG",
    "Type": "Shopping Mall",
    "Status": "No Store",
    "Grade": "D",
    "Store Size": "-",
    "Rental Cost": "-",
    "Latitude": -2.1465119,
    "Longitude": 106.111838
  },
  {
    "Store ID": "-",
    "Store Name": "BTC PANGKAL PINANG",
    "Partner": "-",
    "Region": "SUMATERA",
    "Address": "Jalan Letkol Rusli Romli, Kelurahan Pasar Padi, Kecamatan Girimaya, Kota Pangkalpinang, Kepulauan Bangka Belitung",
    "Province": "KEPULAUAN BANGKA BELITUNG",
    "City": "KOTA PANGKAL PINANG",
    "Type": "Shopping Mall",
    "Status": "No Store",
    "Grade": "D",
    "Store Size": "-",
    "Rental Cost": "-",
    "Latitude": -2.14417,
    "Longitude": 106.11972
  },
  {
    "Store ID": "-",
    "Store Name": "MALL BTC",
    "Partner": "-",
    "Region": "SUMATERA",
    "Address": "Pasar Padi, Rangkui, Pangkal Pinang City, Bangka Belitung Islands 33684",
    "Province": "KEPULAUAN BANGKA BELITUNG",
    "City": "KOTA JAMBI",
    "Type": "Shopping Mall",
    "Status": "No Store",
    "Grade": "C",
    "Store Size": "-",
    "Rental Cost": "-",
    "Latitude": -2.1385648,
    "Longitude": 106.1463724
  },
  {
    "Store ID": "-",
    "Store Name": "RAMAYANA PANGKAL PINANG",
    "Partner": "-",
    "Region": "SUMATERA",
    "Address": "JL. SUDIRMAN NO. 8 PANGKAL PINANG",
    "Province": "KEPULAUAN BANGKA BELITUNG",
    "City": "KOTA PANGKAL PINANG",
    "Type": "Shopping Mall",
    "Status": "No Store",
    "Grade": "D",
    "Store Size": "-",
    "Rental Cost": "-",
    "Latitude": -2.122181,
    "Longitude": 106.138741
  },
  {
    "Store ID": "-",
    "Store Name": "PLAZA KANDILO",
    "Partner": "-",
    "Region": "KALIMANTAN - SULAWESI",
    "Address": "Kandilo Bahari 76251 Tanah Grogot East Kalimantan",
    "Province": "KALIMANTAN TIMUR",
    "City": "KABUPATEN PASER",
    "Type": "Shopping Mall",
    "Status": "No Store",
    "Grade": "C",
    "Store Size": "-",
    "Rental Cost": "-",
    "Latitude": -1.9131344,
    "Longitude": 116.1993677
  },
  {
    "Store ID": "-",
    "Store Name": "SP PLAZA",
    "Partner": "-",
    "Region": "SUMATERA",
    "Address": "Jalan Letjen R. Suprapto, Kelurahan Tembesi, Kecamatan Sagulung, Kota Batam (daerah Batu Aji)",
    "Province": "KEPULAUAN RIAU",
    "City": "KOTA BATAM",
    "Type": "Shopping Mall",
    "Status": "No Store",
    "Grade": "C",
    "Store Size": "-",
    "Rental Cost": "-",
    "Latitude": -1.912077,
    "Longitude": 116.198714
  },
  {
    "Store ID": "-",
    "Store Name": "SAGA MALL",
    "Partner": "-",
    "Region": "EAST JAVA - BALI",
    "Address": "Kota Baru, Kec. Abepura, Kota Jayapura, Papua 99351",
    "Province": "PAPUA",
    "City": "KOTA JAYAPURA",
    "Type": "Shopping Mall",
    "Status": "No Store",
    "Grade": "C",
    "Store Size": "-",
    "Rental Cost": "-",
    "Latitude": -1.6410554,
    "Longitude": 103.6017514
  },
  {
    "Store ID": "-",
    "Store Name": "WTC JAMBI",
    "Partner": "-",
    "Region": "SUMATERA",
    "Address": "Jalan Sultan Thaha No. 17, Pasar Jambi, Kecamatan Pasar Jambi, Kota Jambi, Jambi 36123",
    "Province": "JAMBI",
    "City": "KOTA JAMBI",
    "Type": "Shopping Mall",
    "Status": "No Store",
    "Grade": "C",
    "Store Size": "-",
    "Rental Cost": "-",
    "Latitude": -1.588901,
    "Longitude": 103.615401
  },
  {
    "Store ID": "-",
    "Store Name": "GAJAH MADA SQUARE",
    "Partner": "-",
    "Region": "SUMATERA",
    "Address": "Jalan Gajah Mada, Patam Lestari, Kecamatan Sekupang, Kota Batam, Kepulauan Riau",
    "Province": "KEPULAUAN RIAU",
    "City": "KOTA BATAM",
    "Type": "Shopping Mall",
    "Status": "No Store",
    "Grade": "D",
    "Store Size": "-",
    "Rental Cost": "-",
    "Latitude": -1.514633,
    "Longitude": 116.41994
  },
  {
    "Store ID": "-",
    "Store Name": "BTC BALIKPAPAN",
    "Partner": "-",
    "Region": "KALIMANTAN - SULAWESI",
    "Address": "Jalan Jenderal Sudirman 20 76114 Balikpapan East Kalimantan",
    "Province": "KALIMANTAN TIMUR",
    "City": "KOTA BALIKPAPAN",
    "Type": "Shopping Mall",
    "Status": "No Store",
    "Grade": "D",
    "Store Size": "-",
    "Rental Cost": "-",
    "Latitude": -1.2701958,
    "Longitude": 116.8552771
  },
  {
    "Store ID": "-",
    "Store Name": "BALIKPAPAN PLAZA",
    "Partner": "-",
    "Region": "KALIMANTAN - SULAWESI",
    "Address": "Jl. Jenderal Sudirman 1 76113 Balikpapan Kota Kalimantan Timur",
    "Province": "KALIMANTAN TIMUR",
    "City": "KOTA BALIKPAPAN",
    "Type": "Shopping Mall",
    "Status": "No Store",
    "Grade": "B",
    "Store Size": "-",
    "Rental Cost": "-",
    "Latitude": -1.2696644,
    "Longitude": 116.8577604
  },
  {
    "Store ID": "-",
    "Store Name": "BALIKPAPAN SUPERBLOCK",
    "Partner": "-",
    "Region": "KALIMANTAN - SULAWESI",
    "Address": "Jl Jenderal Sudirman No. 47 76114 Balikpapan Kota Kalimantan Timur",
    "Province": "KALIMANTAN TIMUR",
    "City": "KOTA BALIKPAPAN",
    "Type": "Shopping Mall",
    "Status": "No Store",
    "Grade": "C",
    "Store Size": "-",
    "Rental Cost": "-",
    "Latitude": -1.235994,
    "Longitude": 116.846166
  },
  {
    "Store ID": "-",
    "Store Name": "PLAZA KEBUN SAYUR",
    "Partner": "-",
    "Region": "KALIMANTAN - SULAWESI",
    "Address": "Jl. Letjen Suprapto, Baru Ilir, Kec. Balikpapan Bar., Kota Balikpapan, Kalimantan Timur",
    "Province": "KALIMANTAN TIMUR",
    "City": "KOTA BALIKPAPAN",
    "Type": "Shopping Mall",
    "Status": "No Store",
    "Grade": "D",
    "Store Size": "-",
    "Rental Cost": "-",
    "Latitude": -1.2329296,
    "Longitude": 116.8158192
  },
  {
    "Store ID": "-",
    "Store Name": "RAPAK PLAZA BALIKPAPAN",
    "Partner": "-",
    "Region": "KALIMANTAN - SULAWESI",
    "Address": "Jalan Soekarno-Hatta 76125 Balikpapan Utara East Kalimantan",
    "Province": "KALIMANTAN TIMUR",
    "City": "KOTA BALIKPAPAN",
    "Type": "Shopping Mall",
    "Status": "No Store",
    "Grade": "D",
    "Store Size": "-",
    "Rental Cost": "-",
    "Latitude": -1.2273569,
    "Longitude": 116.8409571
  },
  {
    "Store ID": "-",
    "Store Name": "SENTRA NIAGA CIBITUNG",
    "Partner": "-",
    "Region": "JAKARTA-BANTEN",
    "Address": "Cibitung hanya ada Plaza Metropolitan dan City Plaza Ramayana CIbitung",
    "Province": "JAWA BARAT",
    "City": "KABUPATEN BEKASI",
    "Type": "Shopping Mall",
    "Status": "No Store",
    "Grade": "D",
    "Store Size": "-",
    "Rental Cost": "-",
    "Latitude": -1.220844,
    "Longitude": 116.849977
  },
  {
    "Store ID": "-",
    "Store Name": "THAMRIN CITY",
    "Partner": "-",
    "Region": "JAKARTA-BANTEN",
    "Address": "Jl. H. M. Saleh Ishak (Thamrin Boulevard), Kebon Melati, Kecamatan Tanah Abang, Kota Jakarta Pusat, DKI Jakarta 10230, Indonesia.",
    "Province": "DKI JAKARTA",
    "City": "KOTA JAKARTA PUSAT",
    "Type": "Shopping Mall",
    "Status": "No Store",
    "Grade": "D",
    "Store Size": "-",
    "Rental Cost": "-",
    "Latitude": -1.003189,
    "Longitude": 101.972332
  },
  {
    "Store ID": "-",
    "Store Name": "FX SUDIRMAN",
    "Partner": "-",
    "Region": "JAKARTA-BANTEN",
    "Address": "Jl. Jenderal Sudirman, RT.1/RW.3, Gelora, Kecamatan Tanah Abang, Kota Jakarta Pusat, DKI Jakarta 10270, Indonesia.",
    "Province": "DKI JAKARTA",
    "City": "KOTA JAKARTA PUSAT",
    "Type": "Shopping Mall",
    "Status": "No Store",
    "Grade": "D",
    "Store Size": "-",
    "Rental Cost": "-",
    "Latitude": -1.003189,
    "Longitude": 101.972332
  },
  {
    "Store ID": "-",
    "Store Name": "SENAYAN PARK",
    "Partner": "-",
    "Region": "JAKARTA-BANTEN",
    "Address": "Jl. Gerbang Pemuda No. 3, RT.1/RW.3, Gelora, Kecamatan Tanah Abang, Kota Jakarta Pusat, DKI Jakarta 10270, Indonesia.",
    "Province": "DKI JAKARTA",
    "City": "KOTA JAKARTA PUSAT",
    "Type": "Shopping Mall",
    "Status": "No Store",
    "Grade": "D",
    "Store Size": "-",
    "Rental Cost": "-",
    "Latitude": -1.003189,
    "Longitude": 101.972332
  },
  {
    "Store ID": "-",
    "Store Name": "TRANS MART",
    "Partner": "-",
    "Region": "SUMATERA",
    "Address": "Jl. Khatib Sulaiman No.85, Ulak Karang Selatan, Kecamatan Padang Utara, Kota Padang, Sumatera Barat 25137.",
    "Province": "SUMATERA BARAT",
    "City": "KOTA PADANG",
    "Type": "Shopping Mall",
    "Status": "No Store",
    "Grade": "D",
    "Store Size": "-",
    "Rental Cost": "-",
    "Latitude": -0.923268,
    "Longitude": 100.3612649
  },
  {
    "Store ID": "-",
    "Store Name": "MEGA MALL SORONG",
    "Partner": "-",
    "Region": "EAST JAVA - BALI",
    "Address": "Jalan Basuki Rahmat Klabulu, Malaimsimsa, Malaingkedi, Kec. Sorong Utara, Kota Sorong, Papua Barat Daya 98412",
    "Province": "PAPUA BARAT",
    "City": "KOTA SORONG",
    "Type": "Shopping Mall",
    "Status": "No Store",
    "Grade": "D",
    "Store Size": "-",
    "Rental Cost": "-",
    "Latitude": -0.8740936,
    "Longitude": 131.3081554
  },
  {
    "Store ID": "-",
    "Store Name": "MALL LEMBUSWANA",
    "Partner": "-",
    "Region": "KALIMANTAN - SULAWESI",
    "Address": "Jl. S. Parman, Gn. Kelua, Kec. Samarinda Ulu, Kota Samarinda, Kalimantan Timur",
    "Province": "KALIMANTAN TIMUR",
    "City": "KOTA SAMARINDA",
    "Type": "Shopping Mall",
    "Status": "No Store",
    "Grade": "D",
    "Store Size": "-",
    "Rental Cost": "-",
    "Latitude": -0.456522,
    "Longitude": 117.1139871
  },
  {
    "Store ID": "-",
    "Store Name": "PLAZA BUKIT TINGGI",
    "Partner": "-",
    "Region": "SUMATERA",
    "Address": "Plaza Bukittinggi, Jalan Ahmad Yani No.1, Benteng Ps. Atas, Kecamatan Guguk Panjang, Kota Bukittinggi, Sumatera Barat",
    "Province": "SUMATERA BARAT",
    "City": "KOTA BANDA ACEH",
    "Type": "Shopping Mall",
    "Status": "No Store",
    "Grade": "D",
    "Store Size": "-",
    "Rental Cost": "-",
    "Latitude": -0.3094,
    "Longitude": 100.382971
  },
  {
    "Store ID": "-",
    "Store Name": "BASKO GRAND MALL",
    "Partner": "-",
    "Region": "SUMATERA",
    "Address": "Jl. Prof.Dr.Hamka No.2A, Air Tawar Barat, Kec. Padang Utara, Kota Padang, Sumatera Barat.",
    "Province": "SUMATERA BARAT",
    "City": "KOTA PALEMBANG",
    "Type": "Shopping Mall",
    "Status": "No Store",
    "Grade": "C",
    "Store Size": "-",
    "Rental Cost": "-",
    "Latitude": 0.0059,
    "Longitude": 100.1546
  },
  {
    "Store ID": "-",
    "Store Name": "CITIMALL BONTANG",
    "Partner": "-",
    "Region": "KALIMANTAN - SULAWESI",
    "Address": "Jalan Kalimantan 75321 Bontang Barat East Kalimantan",
    "Province": "KALIMANTAN TIMUR",
    "City": "KOTA BONTANG",
    "Type": "Shopping Mall",
    "Status": "No Store",
    "Grade": "C",
    "Store Size": "-",
    "Rental Cost": "-",
    "Latitude": 0.138288,
    "Longitude": 117.463376
  },
  {
    "Store ID": "-",
    "Store Name": "MALL GIANT PEKANBARU",
    "Partner": "-",
    "Region": "SUMATERA",
    "Address": "Jl. SDM. Soebrantas No.KM. 12, Kelurahan Simpang Baru, Kecamatan Tuah Madani",
    "Province": "RIAU",
    "City": "KOTA PEKANBARU",
    "Type": "Shopping Mall",
    "Status": "No Store",
    "Grade": "D",
    "Store Size": "-",
    "Rental Cost": "-",
    "Latitude": 0.4710278,
    "Longitude": 101.3762484
  },
  {
    "Store ID": "-",
    "Store Name": "TRANSMART PEKANBARU",
    "Partner": "-",
    "Region": "SUMATERA",
    "Address": "Jalan Musyawarah Nomor 11, Kelurahan Labuh Baru Timur, Kecamatan Payung Sekaki, Kota Pekanbaru, Riau",
    "Province": "RIAU",
    "City": "KOTA PRABUMULIH",
    "Type": "Shopping Mall",
    "Status": "No Store",
    "Grade": "D",
    "Store Size": "-",
    "Rental Cost": "-",
    "Latitude": 0.5031708,
    "Longitude": 101.42177649999999
  },
  {
    "Store ID": "-",
    "Store Name": "PEKANBARU XCHANGE",
    "Partner": "-",
    "Region": "SUMATERA",
    "Address": "Jalan Riau Nomor 147, Kelurahan Padang Terubuk, Kecamatan Senapelan, Kota Pekanbaru, Riau 28155",
    "Province": "RIAU",
    "City": "KOTA PEKANBARU",
    "Type": "Shopping Mall",
    "Status": "No Store",
    "Grade": "D",
    "Store Size": "-",
    "Rental Cost": "-",
    "Latitude": 0.535321,
    "Longitude": 101.439406
  },
  {
    "Store ID": "-",
    "Store Name": "MALL CIPUTRA SERAYA",
    "Partner": "-",
    "Region": "SUMATERA",
    "Address": "Jalan Riau No. 58, Kelurahan Kampung Baru, Kecamatan Senapelan, Kota Pekanbaru,",
    "Province": "RIAU",
    "City": "KOTA PEKANBARU",
    "Type": "Shopping Mall",
    "Status": "No Store",
    "Grade": "D",
    "Store Size": "-",
    "Rental Cost": "-",
    "Latitude": 0.53944,
    "Longitude": 101.43194
  },
  {
    "Store ID": "-",
    "Store Name": "TOP LINE CITY CENTER",
    "Partner": "-",
    "Region": "SUMATERA",
    "Address": "Jalan Raya Dompak, Batu 8, Kota Tanjungpinang",
    "Province": "KEPULAUAN RIAU",
    "City": "KOTA TANJUNG PINANG",
    "Type": "Shopping Mall",
    "Status": "No Store",
    "Grade": "D",
    "Store Size": "-",
    "Rental Cost": "-",
    "Latitude": 0.8666322,
    "Longitude": 104.4900001
  },
  {
    "Store ID": "-",
    "Store Name": "TANJUNG PINANG CENTRE",
    "Partner": "-",
    "Region": "SUMATERA",
    "Address": "Jl. Raya Dompak, Batu 8 Atas, Sei Jang, Kecamatan Bukit Bestari, Kota Tanjung Pinang, Kepulauan Riau 2911",
    "Province": "KEPULAUAN RIAU",
    "City": "KOTA BUKITTINGGI",
    "Type": "Shopping Mall",
    "Status": "No Store",
    "Grade": "C",
    "Store Size": "-",
    "Rental Cost": "-",
    "Latitude": 0.876234,
    "Longitude": 104.44508
  },
  {
    "Store ID": "-",
    "Store Name": "BINTAN MALL",
    "Partner": "-",
    "Region": "SUMATERA",
    "Address": "Jalan Pos, kawasan Kota Lama Tanjungpinang, Kepulauan Riau, dekat Pelabuhan Sri Bintan Pura",
    "Province": "KEPULAUAN RIAU",
    "City": "KOTA BATAM",
    "Type": "Shopping Mall",
    "Status": "No Store",
    "Grade": "D",
    "Store Size": "-",
    "Rental Cost": "-",
    "Latitude": 0.8901401,
    "Longitude": 104.4823208
  },
  {
    "Store ID": "-",
    "Store Name": "SENAPELAN PLAZA",
    "Partner": "-",
    "Region": "SUMATERA",
    "Address": "Jalan Teuku Umar, Kelurahan Rintis, Kecamatan Lima Puluh, Kota Pekanbaru, Riau",
    "Province": "RIAU",
    "City": "KOTA PEKANBARU",
    "Type": "Shopping Mall",
    "Status": "No Store",
    "Grade": "D",
    "Store Size": "-",
    "Rental Cost": "-",
    "Latitude": 0.8992,
    "Longitude": 102.9842
  },
  {
    "Store ID": "-",
    "Store Name": "PLAZA TUNAS REGENCY",
    "Partner": "-",
    "Region": "SUMATERA",
    "Address": "Tunas Regency, sungai Binti, Kec. Sagulung, Kota Batam, Kepulauan Riau,29425",
    "Province": "KEPULAUAN RIAU",
    "City": "KOTA BATAM",
    "Type": "Shopping Mall",
    "Status": "No Store",
    "Grade": "D",
    "Store Size": "-",
    "Rental Cost": "-",
    "Latitude": 1.06668,
    "Longitude": 103.988912
  },
  {
    "Store ID": "-",
    "Store Name": "PLAZA AVIARI",
    "Partner": "-",
    "Region": "SUMATERA",
    "Address": "jalan Pahlawan Bukit Tempayan Batu Aji batam",
    "Province": "KEPULAUAN RIAU",
    "City": "KOTA PADANG",
    "Type": "Shopping Mall",
    "Status": "No Store",
    "Grade": "C",
    "Store Size": "-",
    "Rental Cost": "-",
    "Latitude": 1.06668,
    "Longitude": 103.988912
  },
  {
    "Store ID": "-",
    "Store Name": "GRAND BATAM MALL",
    "Partner": "-",
    "Region": "SUMATERA",
    "Address": "Jl. Pembangunan, Batu Selicin, Kecamatan Lubuk Baja, Kota Batam, Kepulauan Riau",
    "Province": "KEPULAUAN RIAU",
    "City": "KOTA BATAM",
    "Type": "Shopping Mall",
    "Status": "No Store",
    "Grade": "A",
    "Store Size": "-",
    "Rental Cost": "-",
    "Latitude": 1.117469,
    "Longitude": 104.0574111
  },
  {
    "Store ID": "-",
    "Store Name": "MEGA MALL BATAM",
    "Partner": "-",
    "Region": "SUMATERA",
    "Address": "Jalan Engku Putri No.1, Belian, Kecamatan Batam Kota, Kota Batam, Kepulauan Riau",
    "Province": "KEPULAUAN RIAU",
    "City": "KOTA BATAM",
    "Type": "Shopping Mall",
    "Status": "No Store",
    "Grade": "B",
    "Store Size": "-",
    "Rental Cost": "-",
    "Latitude": 1.117469,
    "Longitude": 104.0574111
  },
  {
    "Store ID": "-",
    "Store Name": "DC MALL",
    "Partner": "-",
    "Region": "SUMATERA",
    "Address": "l. Duyung, Batu Selicin, Kec. Lubuk Baja, Kota Batam, Kepulauan Riau",
    "Province": "KEPULAUAN RIAU",
    "City": "KOTA BATAM",
    "Type": "Shopping Mall",
    "Status": "No Store",
    "Grade": "D",
    "Store Size": "-",
    "Rental Cost": "-",
    "Latitude": 1.117469,
    "Longitude": 104.0574111
  },
  {
    "Store ID": "-",
    "Store Name": "BATAM CITY SQUARE",
    "Partner": "-",
    "Region": "SUMATERA",
    "Address": "Jalan Bunga Raya, Kelurahan Batu Selicin, Kecamatan Lubuk Baja, Kota Batam, Kepulauan Riau",
    "Province": "KEPULAUAN RIAU",
    "City": "KOTA BATAM",
    "Type": "Shopping Mall",
    "Status": "No Store",
    "Grade": "D",
    "Store Size": "-",
    "Rental Cost": "-",
    "Latitude": 1.117469,
    "Longitude": 104.0574111
  },
  {
    "Store ID": "-",
    "Store Name": "AVAVA PLAZA",
    "Partner": "-",
    "Region": "SUMATERA",
    "Address": "Jalan Kompleks Business Centre, Jodoh, Lubuk Baja Kota, Kecamatan Lubuk Baja, Kota Batam, Kepulauan Riau",
    "Province": "KEPULAUAN RIAU",
    "City": "KOTA BATAM",
    "Type": "Shopping Mall",
    "Status": "No Store",
    "Grade": "D",
    "Store Size": "-",
    "Rental Cost": "-",
    "Latitude": 1.1261406,
    "Longitude": 104.0167068
  },
  {
    "Store ID": "-",
    "Store Name": "PLAZA BTC",
    "Partner": "-",
    "Region": "SUMATERA",
    "Address": "bida Ayu Pintu 1, Kelurahan Mangsang, Kecamatan Sei Beduk, Kota Batam.",
    "Province": "KEPULAUAN RIAU",
    "City": "KOTA BATAM",
    "Type": "Shopping Mall",
    "Status": "No Store",
    "Grade": "D",
    "Store Size": "-",
    "Rental Cost": "-",
    "Latitude": 1.150921,
    "Longitude": 104.112169
  },
  {
    "Store ID": "-",
    "Store Name": "ONE BATAM MALL",
    "Partner": "-",
    "Region": "SUMATERA",
    "Address": "Jalan Raja M. Tahir (atau Jalan Raja Haji Fisabilillah), Teluk Tering, Kecamatan Batam Kota, Kota Batam, Kepulauan Riau 29444",
    "Province": "KEPULAUAN RIAU",
    "City": "KOTA BATAM",
    "Type": "Shopping Mall",
    "Status": "No Store",
    "Grade": "C",
    "Store Size": "-",
    "Rental Cost": "-",
    "Latitude": 1.152449,
    "Longitude": 104.008849
  },
  {
    "Store ID": "-",
    "Store Name": "BENGKONG SHOPPING CENTRE",
    "Partner": "-",
    "Region": "SUMATERA",
    "Address": "Jalan Bengkong Laut, Kecamatan Bengkong, Kota Batam, Kepulauan Riau",
    "Province": "KEPULAUAN RIAU",
    "City": "KOTA BATAM",
    "Type": "Shopping Mall",
    "Status": "No Store",
    "Grade": "D",
    "Store Size": "-",
    "Rental Cost": "-",
    "Latitude": 1.153419,
    "Longitude": 104.0255715
  },
  {
    "Store ID": "-",
    "Store Name": "IT CENTER",
    "Partner": "-",
    "Region": "KALIMANTAN - SULAWESI",
    "Address": "Jl. Piere Tendean, Wenang Utara, Kec. Wenang, Kota Manado, Sulawesi Utara 95111",
    "Province": "SULAWESI UTARA",
    "City": "KOTA MANADO",
    "Type": "Shopping Mall",
    "Status": "No Store",
    "Grade": "B",
    "Store Size": "-",
    "Rental Cost": "-",
    "Latitude": 1.4868062,
    "Longitude": 124.8386173
  },
  {
    "Store ID": "-",
    "Store Name": "GRAND KAWANUA",
    "Partner": "-",
    "Region": "KALIMANTAN - SULAWESI",
    "Address": "Kayuwatu, Jl. A.A. Maramis, Kairagi Dua, Kec. Mapanget, Kota Manado, Sulawesi Utara 95254",
    "Province": "SULAWESI UTARA",
    "City": "KOTA MANADO",
    "Type": "Shopping Mall",
    "Status": "No Store",
    "Grade": "D",
    "Store Size": "-",
    "Rental Cost": "-",
    "Latitude": 1.5003421,
    "Longitude": 124.8977675
  },
  {
    "Store ID": "-",
    "Store Name": "SUZUYA MALL BAGAN BATU",
    "Partner": "-",
    "Region": "SUMATERA",
    "Address": "Jl. Jenderal Sudirman, Bagan Batu, Kecamatan Bagan Sinembah, Kabupaten Rokan Hilir, Riau 28992",
    "Province": "RIAU",
    "City": "KOTA LANGSA",
    "Type": "Shopping Mall",
    "Status": "No Store",
    "Grade": "C",
    "Store Size": "-",
    "Rental Cost": "-",
    "Latitude": 1.6942826,
    "Longitude": 100.4124634
  },
  {
    "Store ID": "-",
    "Store Name": "CITIMALL DUMAI",
    "Partner": "-",
    "Region": "SUMATERA",
    "Address": "Jalan Bukit Datuk, Kelurahan Bukit Datuk, Kecamatan Dumai Barat, Kota Dumai, Riau 28826",
    "Province": "RIAU",
    "City": "KABUPATEN BENGKALIS",
    "Type": "Shopping Mall",
    "Status": "No Store",
    "Grade": "C",
    "Store Size": "-",
    "Rental Cost": "-",
    "Latitude": 1.6945379,
    "Longitude": 101.4061697
  },
  {
    "Store ID": "-",
    "Store Name": "MALL CENTRAL A.YANI",
    "Partner": "-",
    "Region": "SUMATERA",
    "Address": "Jalan Jenderal Ahmad Yani Nomor 42A, Padang Bulan, Kecamatan Senapelan, Kota Pekanbaru, Riau",
    "Province": "RIAU",
    "City": "KOTA PEKANBARU",
    "Type": "Shopping Mall",
    "Status": "No Store",
    "Grade": "D",
    "Store Size": "-",
    "Rental Cost": "-",
    "Latitude": 1.85619,
    "Longitude": 99.90401
  },
  {
    "Store ID": "-",
    "Store Name": "PLAZA KABANJAHE",
    "Partner": "-",
    "Region": "SUMATERA",
    "Address": "Jalan Jenderal Sudirman , Padang Mas, Kecamatan Kabanjahe, Kabupaten Karo, Sumatera Utara.",
    "Province": "SUMATERA UTARA",
    "City": "KOTA BATAM",
    "Type": "Shopping Mall",
    "Status": "No Store",
    "Grade": "D",
    "Store Size": "-",
    "Rental Cost": "-",
    "Latitude": 3.0875,
    "Longitude": 99.62917
  },
  {
    "Store ID": "-",
    "Store Name": "RAMAYANA TEBING TINGGI",
    "Partner": "-",
    "Region": "SUMATERA",
    "Address": "Jl. Jend. Sudirman, Tj. Marulak Hilir, Kec. Rambutan, Kota Tebing Tinggi, Sumatera Utara 20627",
    "Province": "SUMATERA UTARA",
    "City": "KOTA PADANGSIDIMPUAN",
    "Type": "Shopping Mall",
    "Status": "No Store",
    "Grade": "D",
    "Store Size": "-",
    "Rental Cost": "-",
    "Latitude": 3.347807,
    "Longitude": 99.165592
  },
  {
    "Store ID": "-",
    "Store Name": "BEKASI SQUARE / REVOTOWN",
    "Partner": "-",
    "Region": "JAKARTA-BANTEN",
    "Address": "Jl. Ahmad Yani No.Kav. 1, RT.005/RW.002, Pekayon Jaya, Kec. Bekasi Sel., Kota Bks, Jawa Barat 17148",
    "Province": "JAWA BARAT",
    "City": "KOTA BEKASI",
    "Type": "Shopping Mall",
    "Status": "No Store",
    "Grade": "D",
    "Store Size": "-",
    "Rental Cost": "-",
    "Latitude": 3.485218,
    "Longitude": 97.812486
  },
  {
    "Store ID": "-",
    "Store Name": "BRASTAGI SUPERMARKET GATOT SUBROTO",
    "Partner": "-",
    "Region": "SUMATERA",
    "Address": "Jl. Gatot Subroto No.288, Sei Putih Tengah, Kec. Medan Petisah, Kota Medan, Sumatera Utara 20113",
    "Province": "SUMATERA UTARA",
    "City": "KOTA TEBING TINGGI",
    "Type": "Shopping Mall",
    "Status": "No Store",
    "Grade": "B",
    "Store Size": "-",
    "Rental Cost": "-",
    "Latitude": 3.544318,
    "Longitude": 98.711819
  },
  {
    "Store ID": "-",
    "Store Name": "SUZUYA MALL MARELAN",
    "Partner": "-",
    "Region": "SUMATERA",
    "Address": "Jl. Marelan Raya No.207, Tanah Enam Ratus, Kec. Medan Marelan, Kota Medan, Sumatera Utara 20243",
    "Province": "SUMATERA UTARA",
    "City": "KOTA DUMAI",
    "Type": "Shopping Mall",
    "Status": "No Store",
    "Grade": "C",
    "Store Size": "-",
    "Rental Cost": "-",
    "Latitude": 3.544318,
    "Longitude": 98.711819
  },